{
"type": "FeatureCollection",
"name": "almaty-stops",
"crs": { "type": "name", "properties": { "name": "urn:ogc:def:crs:OGC:1.3:CRS84" } },
"features": [
{ "type": "Feature", "properties": { "stop_id": 1, "stop_code": null, "stop_name": "Ул. Алмалыкская", "stop_desc": null, "stop_lat": 43.16847, "stop_lon": 76.966527, "zone_id": null, "stop_url": null, "location_type": null, "parent_station": null, "stop_timezone": null, "wheelchair_boarding": null }, "geometry": { "type": "Point", "coordinates": [ 76.966527, 43.16847 ] } },
{ "type": "Feature", "properties": { "stop_id": 2, "stop_code": null, "stop_name": "Обсерватория", "stop_desc": null, "stop_lat": 43.1809, "stop_lon": 76.964865, "zone_id": null, "stop_url": null, "location_type": null, "parent_station": null, "stop_timezone": null, "wheelchair_boarding": null }, "geometry": { "type": "Point", "coordinates": [ 76.964865, 43.1809 ] } },
{ "type": "Feature", "properties": { "stop_id": 3, "stop_code": null, "stop_name": "Каменское плато", "stop_desc": null, "stop_lat": 43.18749, "stop_lon": 76.961544, "zone_id": null, "stop_url": null, "location_type": null, "parent_station": null, "stop_timezone": null, "wheelchair_boarding": null }, "geometry": { "type": "Point", "coordinates": [ 76.961544, 43.18749 ] } },
{ "type": "Feature", "properties": { "stop_id": 4, "stop_code": null, "stop_name": "Ул. Олимпийская", "stop_desc": null, "stop_lat": 43.19174, "stop_lon": 76.968776, "zone_id": null, "stop_url": null, "location_type": null, "parent_station": null, "stop_timezone": null, "wheelchair_boarding": null }, "geometry": { "type": "Point", "coordinates": [ 76.968776, 43.19174 ] } },
{ "type": "Feature", "properties": { "stop_id": 6, "stop_code": null, "stop_name": "Мост", "stop_desc": null, "stop_lat": 43.204359, "stop_lon": 76.97713, "zone_id": null, "stop_url": null, "location_type": null, "parent_station": null, "stop_timezone": null, "wheelchair_boarding": null }, "geometry": { "type": "Point", "coordinates": [ 76.97713, 43.204359 ] } },
{ "type": "Feature", "properties": { "stop_id": 7, "stop_code": null, "stop_name": "Мост", "stop_desc": null, "stop_lat": 43.204605, "stop_lon": 76.976578, "zone_id": null, "stop_url": null, "location_type": null, "parent_station": null, "stop_timezone": null, "wheelchair_boarding": null }, "geometry": { "type": "Point", "coordinates": [ 76.976578, 43.204605 ] } },
{ "type": "Feature", "properties": { "stop_id": 8, "stop_code": null, "stop_name": "Школа-лицей №48", "stop_desc": null, "stop_lat": 43.208293, "stop_lon": 76.971573, "zone_id": null, "stop_url": null, "location_type": null, "parent_station": null, "stop_timezone": null, "wheelchair_boarding": null }, "geometry": { "type": "Point", "coordinates": [ 76.971573, 43.208293 ] } },
{ "type": "Feature", "properties": { "stop_id": 9, "stop_code": null, "stop_name": "Школа-лицей №48", "stop_desc": null, "stop_lat": 43.208629, "stop_lon": 76.971358, "zone_id": null, "stop_url": null, "location_type": null, "parent_station": null, "stop_timezone": null, "wheelchair_boarding": null }, "geometry": { "type": "Point", "coordinates": [ 76.971358, 43.208629 ] } },
{ "type": "Feature", "properties": { "stop_id": 14, "stop_code": null, "stop_name": "Ул. Омаровой", "stop_desc": null, "stop_lat": 43.221444, "stop_lon": 76.963794, "zone_id": null, "stop_url": null, "location_type": null, "parent_station": null, "stop_timezone": null, "wheelchair_boarding": null }, "geometry": { "type": "Point", "coordinates": [ 76.963794, 43.221444 ] } },
{ "type": "Feature", "properties": { "stop_id": 15, "stop_code": null, "stop_name": "Калдаякова/Богенбай батыра", "stop_desc": null, "stop_lat": 43.254459, "stop_lon": 76.95893, "zone_id": null, "stop_url": null, "location_type": null, "parent_station": null, "stop_timezone": null, "wheelchair_boarding": null }, "geometry": { "type": "Point", "coordinates": [ 76.95893, 43.254459 ] } },
{ "type": "Feature", "properties": { "stop_id": 16, "stop_code": null, "stop_name": "Ул. Богенбай батыра", "stop_desc": null, "stop_lat": 43.254831, "stop_lon": 76.958761, "zone_id": null, "stop_url": null, "location_type": null, "parent_station": null, "stop_timezone": null, "wheelchair_boarding": null }, "geometry": { "type": "Point", "coordinates": [ 76.958761, 43.254831 ] } },
{ "type": "Feature", "properties": { "stop_id": 19, "stop_code": null, "stop_name": "Ул. Казыбек би", "stop_desc": null, "stop_lat": 43.258236, "stop_lon": 76.958325, "zone_id": null, "stop_url": null, "location_type": null, "parent_station": null, "stop_timezone": null, "wheelchair_boarding": null }, "geometry": { "type": "Point", "coordinates": [ 76.958325, 43.258236 ] } },
{ "type": "Feature", "properties": { "stop_id": 20, "stop_code": null, "stop_name": "Ул. Гоголя", "stop_desc": null, "stop_lat": 43.259824, "stop_lon": 76.958236, "zone_id": null, "stop_url": null, "location_type": null, "parent_station": null, "stop_timezone": null, "wheelchair_boarding": null }, "geometry": { "type": "Point", "coordinates": [ 76.958236, 43.259824 ] } },
{ "type": "Feature", "properties": { "stop_id": 22, "stop_code": null, "stop_name": "Калдаякова/Жибек Жолы", "stop_desc": null, "stop_lat": 43.262697, "stop_lon": 76.957744, "zone_id": null, "stop_url": null, "location_type": null, "parent_station": null, "stop_timezone": null, "wheelchair_boarding": null }, "geometry": { "type": "Point", "coordinates": [ 76.957744, 43.262697 ] } },
{ "type": "Feature", "properties": { "stop_id": 23, "stop_code": null, "stop_name": "Ул. Байконурская", "stop_desc": null, "stop_lat": 43.190605, "stop_lon": 76.967629, "zone_id": null, "stop_url": null, "location_type": null, "parent_station": null, "stop_timezone": null, "wheelchair_boarding": null }, "geometry": { "type": "Point", "coordinates": [ 76.967629, 43.190605 ] } },
{ "type": "Feature", "properties": { "stop_id": 24, "stop_code": null, "stop_name": "Ул. Байконурская", "stop_desc": null, "stop_lat": 43.188237, "stop_lon": 76.967557, "zone_id": null, "stop_url": null, "location_type": null, "parent_station": null, "stop_timezone": null, "wheelchair_boarding": null }, "geometry": { "type": "Point", "coordinates": [ 76.967557, 43.188237 ] } },
{ "type": "Feature", "properties": { "stop_id": 25, "stop_code": null, "stop_name": "Ул. Южная", "stop_desc": null, "stop_lat": 43.18563, "stop_lon": 76.968109, "zone_id": null, "stop_url": null, "location_type": null, "parent_station": null, "stop_timezone": null, "wheelchair_boarding": null }, "geometry": { "type": "Point", "coordinates": [ 76.968109, 43.18563 ] } },
{ "type": "Feature", "properties": { "stop_id": 27, "stop_code": null, "stop_name": "Винзавод", "stop_desc": null, "stop_lat": 43.177616, "stop_lon": 76.970199, "zone_id": null, "stop_url": null, "location_type": null, "parent_station": null, "stop_timezone": null, "wheelchair_boarding": null }, "geometry": { "type": "Point", "coordinates": [ 76.970199, 43.177616 ] } },
{ "type": "Feature", "properties": { "stop_id": 28, "stop_code": null, "stop_name": "Винзавод", "stop_desc": null, "stop_lat": 43.177675, "stop_lon": 76.970305, "zone_id": null, "stop_url": null, "location_type": null, "parent_station": null, "stop_timezone": null, "wheelchair_boarding": null }, "geometry": { "type": "Point", "coordinates": [ 76.970305, 43.177675 ] } },
{ "type": "Feature", "properties": { "stop_id": 29, "stop_code": null, "stop_name": "Ул. Кайсенова", "stop_desc": null, "stop_lat": 43.203351, "stop_lon": 76.987135, "zone_id": null, "stop_url": null, "location_type": null, "parent_station": null, "stop_timezone": null, "wheelchair_boarding": null }, "geometry": { "type": "Point", "coordinates": [ 76.987135, 43.203351 ] } },
{ "type": "Feature", "properties": { "stop_id": 30, "stop_code": null, "stop_name": "Ферма", "stop_desc": null, "stop_lat": 43.206427, "stop_lon": 76.989513, "zone_id": null, "stop_url": null, "location_type": null, "parent_station": null, "stop_timezone": null, "wheelchair_boarding": null }, "geometry": { "type": "Point", "coordinates": [ 76.989513, 43.206427 ] } },
{ "type": "Feature", "properties": { "stop_id": 31, "stop_code": null, "stop_name": "Ферма", "stop_desc": null, "stop_lat": 43.206679, "stop_lon": 76.989912, "zone_id": null, "stop_url": null, "location_type": null, "parent_station": null, "stop_timezone": null, "wheelchair_boarding": null }, "geometry": { "type": "Point", "coordinates": [ 76.989912, 43.206679 ] } },
{ "type": "Feature", "properties": { "stop_id": 32, "stop_code": null, "stop_name": "Мкр. Кольсай", "stop_desc": null, "stop_lat": 43.215727, "stop_lon": 77.000742, "zone_id": null, "stop_url": null, "location_type": null, "parent_station": null, "stop_timezone": null, "wheelchair_boarding": null }, "geometry": { "type": "Point", "coordinates": [ 77.000742, 43.215727 ] } },
{ "type": "Feature", "properties": { "stop_id": 33, "stop_code": null, "stop_name": "Ул. Курмангалиева", "stop_desc": null, "stop_lat": 43.250803, "stop_lon": 76.961314, "zone_id": null, "stop_url": null, "location_type": null, "parent_station": null, "stop_timezone": null, "wheelchair_boarding": null }, "geometry": { "type": "Point", "coordinates": [ 76.961314, 43.250803 ] } },
{ "type": "Feature", "properties": { "stop_id": 34, "stop_code": null, "stop_name": "Детский сад", "stop_desc": null, "stop_lat": 43.251303, "stop_lon": 76.966767, "zone_id": null, "stop_url": null, "location_type": null, "parent_station": null, "stop_timezone": null, "wheelchair_boarding": null }, "geometry": { "type": "Point", "coordinates": [ 76.966767, 43.251303 ] } },
{ "type": "Feature", "properties": { "stop_id": 35, "stop_code": null, "stop_name": "Детский сад", "stop_desc": null, "stop_lat": 43.251301, "stop_lon": 76.967985, "zone_id": null, "stop_url": null, "location_type": null, "parent_station": null, "stop_timezone": null, "wheelchair_boarding": null }, "geometry": { "type": "Point", "coordinates": [ 76.967985, 43.251301 ] } },
{ "type": "Feature", "properties": { "stop_id": 36, "stop_code": null, "stop_name": "Ул. Максимова", "stop_desc": null, "stop_lat": 43.247617, "stop_lon": 76.972173, "zone_id": null, "stop_url": null, "location_type": null, "parent_station": null, "stop_timezone": null, "wheelchair_boarding": null }, "geometry": { "type": "Point", "coordinates": [ 76.972173, 43.247617 ] } },
{ "type": "Feature", "properties": { "stop_id": 37, "stop_code": null, "stop_name": "Консульство Ирана", "stop_desc": null, "stop_lat": 43.242699, "stop_lon": 76.973953, "zone_id": null, "stop_url": null, "location_type": null, "parent_station": null, "stop_timezone": null, "wheelchair_boarding": null }, "geometry": { "type": "Point", "coordinates": [ 76.973953, 43.242699 ] } },
{ "type": "Feature", "properties": { "stop_id": 38, "stop_code": null, "stop_name": "Ул. Омаровой", "stop_desc": null, "stop_lat": 43.221022, "stop_lon": 76.96334, "zone_id": null, "stop_url": null, "location_type": null, "parent_station": null, "stop_timezone": null, "wheelchair_boarding": null }, "geometry": { "type": "Point", "coordinates": [ 76.96334, 43.221022 ] } },
{ "type": "Feature", "properties": { "stop_id": 39, "stop_code": null, "stop_name": "Богенбай батыра/Калдаякова", "stop_desc": null, "stop_lat": 43.254052, "stop_lon": 76.959247, "zone_id": null, "stop_url": null, "location_type": null, "parent_station": null, "stop_timezone": null, "wheelchair_boarding": null }, "geometry": { "type": "Point", "coordinates": [ 76.959247, 43.254052 ] } },
{ "type": "Feature", "properties": { "stop_id": 40, "stop_code": null, "stop_name": "Ул. Кастеева", "stop_desc": null, "stop_lat": 43.254629, "stop_lon": 76.96622, "zone_id": null, "stop_url": null, "location_type": null, "parent_station": null, "stop_timezone": null, "wheelchair_boarding": null }, "geometry": { "type": "Point", "coordinates": [ 76.96622, 43.254629 ] } },
{ "type": "Feature", "properties": { "stop_id": 41, "stop_code": null, "stop_name": "Ул. Кастеева", "stop_desc": null, "stop_lat": 43.254596, "stop_lon": 76.966931, "zone_id": null, "stop_url": null, "location_type": null, "parent_station": null, "stop_timezone": null, "wheelchair_boarding": null }, "geometry": { "type": "Point", "coordinates": [ 76.966931, 43.254596 ] } },
{ "type": "Feature", "properties": { "stop_id": 42, "stop_code": null, "stop_name": "Ул. Есенберлина", "stop_desc": null, "stop_lat": 43.260995, "stop_lon": 76.975602, "zone_id": null, "stop_url": null, "location_type": null, "parent_station": null, "stop_timezone": null, "wheelchair_boarding": null }, "geometry": { "type": "Point", "coordinates": [ 76.975602, 43.260995 ] } },
{ "type": "Feature", "properties": { "stop_id": 43, "stop_code": null, "stop_name": "Ул. Есенберлина", "stop_desc": null, "stop_lat": 43.261221, "stop_lon": 76.976182, "zone_id": null, "stop_url": null, "location_type": null, "parent_station": null, "stop_timezone": null, "wheelchair_boarding": null }, "geometry": { "type": "Point", "coordinates": [ 76.976182, 43.261221 ] } },
{ "type": "Feature", "properties": { "stop_id": 44, "stop_code": null, "stop_name": "Ул. Орманова", "stop_desc": null, "stop_lat": 43.265599, "stop_lon": 76.982768, "zone_id": null, "stop_url": null, "location_type": null, "parent_station": null, "stop_timezone": null, "wheelchair_boarding": null }, "geometry": { "type": "Point", "coordinates": [ 76.982768, 43.265599 ] } },
{ "type": "Feature", "properties": { "stop_id": 45, "stop_code": null, "stop_name": "Карьер", "stop_desc": null, "stop_lat": 43.264011, "stop_lon": 76.99033, "zone_id": null, "stop_url": null, "location_type": null, "parent_station": null, "stop_timezone": null, "wheelchair_boarding": null }, "geometry": { "type": "Point", "coordinates": [ 76.99033, 43.264011 ] } },
{ "type": "Feature", "properties": { "stop_id": 46, "stop_code": null, "stop_name": "Гончарный завод", "stop_desc": null, "stop_lat": 43.255459, "stop_lon": 76.993844, "zone_id": null, "stop_url": null, "location_type": null, "parent_station": null, "stop_timezone": null, "wheelchair_boarding": null }, "geometry": { "type": "Point", "coordinates": [ 76.993844, 43.255459 ] } },
{ "type": "Feature", "properties": { "stop_id": 48, "stop_code": null, "stop_name": "Водохранилище", "stop_desc": null, "stop_lat": 43.246598, "stop_lon": 77.004159, "zone_id": null, "stop_url": null, "location_type": null, "parent_station": null, "stop_timezone": null, "wheelchair_boarding": null }, "geometry": { "type": "Point", "coordinates": [ 77.004159, 43.246598 ] } },
{ "type": "Feature", "properties": { "stop_id": 49, "stop_code": null, "stop_name": "Ул. Жамбыла", "stop_desc": null, "stop_lat": 43.24939, "stop_lon": 76.95601, "zone_id": null, "stop_url": null, "location_type": null, "parent_station": null, "stop_timezone": null, "wheelchair_boarding": null }, "geometry": { "type": "Point", "coordinates": [ 76.95601, 43.24939 ] } },
{ "type": "Feature", "properties": { "stop_id": 50, "stop_code": null, "stop_name": "Ул. Жамбыла", "stop_desc": null, "stop_lat": 43.248773, "stop_lon": 76.956303, "zone_id": null, "stop_url": null, "location_type": null, "parent_station": null, "stop_timezone": null, "wheelchair_boarding": null }, "geometry": { "type": "Point", "coordinates": [ 76.956303, 43.248773 ] } },
{ "type": "Feature", "properties": { "stop_id": 51, "stop_code": null, "stop_name": "Ул. Шевченко", "stop_desc": null, "stop_lat": 43.247495, "stop_lon": 76.95644, "zone_id": null, "stop_url": null, "location_type": null, "parent_station": null, "stop_timezone": null, "wheelchair_boarding": null }, "geometry": { "type": "Point", "coordinates": [ 76.95644, 43.247495 ] } },
{ "type": "Feature", "properties": { "stop_id": 52, "stop_code": null, "stop_name": "Ул. Шевченко", "stop_desc": null, "stop_lat": 43.246615, "stop_lon": 76.956438, "zone_id": null, "stop_url": null, "location_type": null, "parent_station": null, "stop_timezone": null, "wheelchair_boarding": null }, "geometry": { "type": "Point", "coordinates": [ 76.956438, 43.246615 ] } },
{ "type": "Feature", "properties": { "stop_id": 55, "stop_code": null, "stop_name": "Дворец школьников", "stop_desc": null, "stop_lat": 43.237075, "stop_lon": 76.957746, "zone_id": null, "stop_url": null, "location_type": null, "parent_station": null, "stop_timezone": null, "wheelchair_boarding": null }, "geometry": { "type": "Point", "coordinates": [ 76.957746, 43.237075 ] } },
{ "type": "Feature", "properties": { "stop_id": 56, "stop_code": null, "stop_name": "Дворец школьников", "stop_desc": null, "stop_lat": 43.237749, "stop_lon": 76.957533, "zone_id": null, "stop_url": null, "location_type": null, "parent_station": null, "stop_timezone": null, "wheelchair_boarding": null }, "geometry": { "type": "Point", "coordinates": [ 76.957533, 43.237749 ] } },
{ "type": "Feature", "properties": { "stop_id": 57, "stop_code": null, "stop_name": "Достык/Жолдасбекова", "stop_desc": null, "stop_lat": 43.23385, "stop_lon": 76.958727, "zone_id": null, "stop_url": null, "location_type": null, "parent_station": null, "stop_timezone": null, "wheelchair_boarding": null }, "geometry": { "type": "Point", "coordinates": [ 76.958727, 43.23385 ] } },
{ "type": "Feature", "properties": { "stop_id": 58, "stop_code": null, "stop_name": "Достык/Аль-Фараби", "stop_desc": null, "stop_lat": 43.230963, "stop_lon": 76.959937, "zone_id": null, "stop_url": null, "location_type": null, "parent_station": null, "stop_timezone": null, "wheelchair_boarding": null }, "geometry": { "type": "Point", "coordinates": [ 76.959937, 43.230963 ] } },
{ "type": "Feature", "properties": { "stop_id": 59, "stop_code": null, "stop_name": "Гор. больница №5", "stop_desc": null, "stop_lat": 43.227729, "stop_lon": 76.961035, "zone_id": null, "stop_url": null, "location_type": null, "parent_station": null, "stop_timezone": null, "wheelchair_boarding": null }, "geometry": { "type": "Point", "coordinates": [ 76.961035, 43.227729 ] } },
{ "type": "Feature", "properties": { "stop_id": 62, "stop_code": null, "stop_name": "Достык/Омаровой", "stop_desc": null, "stop_lat": 43.222013, "stop_lon": 76.963199, "zone_id": null, "stop_url": null, "location_type": null, "parent_station": null, "stop_timezone": null, "wheelchair_boarding": null }, "geometry": { "type": "Point", "coordinates": [ 76.963199, 43.222013 ] } },
{ "type": "Feature", "properties": { "stop_id": 63, "stop_code": null, "stop_name": "Ул. Ондасынова", "stop_desc": null, "stop_lat": 43.200332, "stop_lon": 76.981528, "zone_id": null, "stop_url": null, "location_type": null, "parent_station": null, "stop_timezone": null, "wheelchair_boarding": null }, "geometry": { "type": "Point", "coordinates": [ 76.981528, 43.200332 ] } },
{ "type": "Feature", "properties": { "stop_id": 64, "stop_code": null, "stop_name": "Керей хана и Жанибек хана/Ондасынова", "stop_desc": null, "stop_lat": 43.200098, "stop_lon": 76.981555, "zone_id": null, "stop_url": null, "location_type": null, "parent_station": null, "stop_timezone": null, "wheelchair_boarding": null }, "geometry": { "type": "Point", "coordinates": [ 76.981555, 43.200098 ] } },
{ "type": "Feature", "properties": { "stop_id": 65, "stop_code": null, "stop_name": "Дом отдыха", "stop_desc": null, "stop_lat": 43.194338, "stop_lon": 76.9872, "zone_id": null, "stop_url": null, "location_type": null, "parent_station": null, "stop_timezone": null, "wheelchair_boarding": null }, "geometry": { "type": "Point", "coordinates": [ 76.9872, 43.194338 ] } },
{ "type": "Feature", "properties": { "stop_id": 66, "stop_code": null, "stop_name": "Агролесхоз", "stop_desc": null, "stop_lat": 43.192961, "stop_lon": 76.990788, "zone_id": null, "stop_url": null, "location_type": null, "parent_station": null, "stop_timezone": null, "wheelchair_boarding": null }, "geometry": { "type": "Point", "coordinates": [ 76.990788, 43.192961 ] } },
{ "type": "Feature", "properties": { "stop_id": 67, "stop_code": null, "stop_name": "Агролесхоз", "stop_desc": null, "stop_lat": 43.19166, "stop_lon": 76.993209, "zone_id": null, "stop_url": null, "location_type": null, "parent_station": null, "stop_timezone": null, "wheelchair_boarding": null }, "geometry": { "type": "Point", "coordinates": [ 76.993209, 43.19166 ] } },
{ "type": "Feature", "properties": { "stop_id": 68, "stop_code": null, "stop_name": "Ул. Бейсеуова", "stop_desc": null, "stop_lat": 43.189864, "stop_lon": 77.000435, "zone_id": null, "stop_url": null, "location_type": null, "parent_station": null, "stop_timezone": null, "wheelchair_boarding": null }, "geometry": { "type": "Point", "coordinates": [ 77.000435, 43.189864 ] } },
{ "type": "Feature", "properties": { "stop_id": 69, "stop_code": null, "stop_name": "Мкр. Музтау", "stop_desc": null, "stop_lat": 43.189819, "stop_lon": 77.026681, "zone_id": null, "stop_url": null, "location_type": null, "parent_station": null, "stop_timezone": null, "wheelchair_boarding": null }, "geometry": { "type": "Point", "coordinates": [ 77.026681, 43.189819 ] } },
{ "type": "Feature", "properties": { "stop_id": 70, "stop_code": null, "stop_name": "Мкр. Тау-Самал", "stop_desc": null, "stop_lat": 43.182863, "stop_lon": 76.969077, "zone_id": null, "stop_url": null, "location_type": null, "parent_station": null, "stop_timezone": null, "wheelchair_boarding": null }, "geometry": { "type": "Point", "coordinates": [ 76.969077, 43.182863 ] } },
{ "type": "Feature", "properties": { "stop_id": 71, "stop_code": null, "stop_name": "Детский сад", "stop_desc": null, "stop_lat": 43.179478, "stop_lon": 76.970204, "zone_id": null, "stop_url": null, "location_type": null, "parent_station": null, "stop_timezone": null, "wheelchair_boarding": null }, "geometry": { "type": "Point", "coordinates": [ 76.970204, 43.179478 ] } },
{ "type": "Feature", "properties": { "stop_id": 72, "stop_code": null, "stop_name": "Детский сад", "stop_desc": null, "stop_lat": 43.179317, "stop_lon": 76.970092, "zone_id": null, "stop_url": null, "location_type": null, "parent_station": null, "stop_timezone": null, "wheelchair_boarding": null }, "geometry": { "type": "Point", "coordinates": [ 76.970092, 43.179317 ] } },
{ "type": "Feature", "properties": { "stop_id": 74, "stop_code": null, "stop_name": "ЦОН", "stop_desc": null, "stop_lat": 43.337029, "stop_lon": 76.951875, "zone_id": null, "stop_url": null, "location_type": null, "parent_station": null, "stop_timezone": null, "wheelchair_boarding": null }, "geometry": { "type": "Point", "coordinates": [ 76.951875, 43.337029 ] } },
{ "type": "Feature", "properties": { "stop_id": 75, "stop_code": null, "stop_name": "Ул. Рихарда Зорге", "stop_desc": null, "stop_lat": 43.335051, "stop_lon": 76.953339, "zone_id": null, "stop_url": null, "location_type": null, "parent_station": null, "stop_timezone": null, "wheelchair_boarding": null }, "geometry": { "type": "Point", "coordinates": [ 76.953339, 43.335051 ] } },
{ "type": "Feature", "properties": { "stop_id": 76, "stop_code": null, "stop_name": "Ул. Молдагалиева", "stop_desc": null, "stop_lat": 43.332347, "stop_lon": 76.952806, "zone_id": null, "stop_url": null, "location_type": null, "parent_station": null, "stop_timezone": null, "wheelchair_boarding": null }, "geometry": { "type": "Point", "coordinates": [ 76.952806, 43.332347 ] } },
{ "type": "Feature", "properties": { "stop_id": 77, "stop_code": null, "stop_name": "Ул. Чернышевского", "stop_desc": null, "stop_lat": 43.329448, "stop_lon": 76.951068, "zone_id": null, "stop_url": null, "location_type": null, "parent_station": null, "stop_timezone": null, "wheelchair_boarding": null }, "geometry": { "type": "Point", "coordinates": [ 76.951068, 43.329448 ] } },
{ "type": "Feature", "properties": { "stop_id": 78, "stop_code": null, "stop_name": "Ул. Чернышевского", "stop_desc": null, "stop_lat": 43.329608, "stop_lon": 76.951486, "zone_id": null, "stop_url": null, "location_type": null, "parent_station": null, "stop_timezone": null, "wheelchair_boarding": null }, "geometry": { "type": "Point", "coordinates": [ 76.951486, 43.329608 ] } },
{ "type": "Feature", "properties": { "stop_id": 79, "stop_code": null, "stop_name": "Ж/д больница", "stop_desc": null, "stop_lat": 43.32649, "stop_lon": 76.949767, "zone_id": null, "stop_url": null, "location_type": null, "parent_station": null, "stop_timezone": null, "wheelchair_boarding": null }, "geometry": { "type": "Point", "coordinates": [ 76.949767, 43.32649 ] } },
{ "type": "Feature", "properties": { "stop_id": 80, "stop_code": null, "stop_name": "Ж/д больница", "stop_desc": null, "stop_lat": 43.326017, "stop_lon": 76.949145, "zone_id": null, "stop_url": null, "location_type": null, "parent_station": null, "stop_timezone": null, "wheelchair_boarding": null }, "geometry": { "type": "Point", "coordinates": [ 76.949145, 43.326017 ] } },
{ "type": "Feature", "properties": { "stop_id": 81, "stop_code": null, "stop_name": "Ул. Буденного", "stop_desc": null, "stop_lat": 43.323293, "stop_lon": 76.947587, "zone_id": null, "stop_url": null, "location_type": null, "parent_station": null, "stop_timezone": null, "wheelchair_boarding": null }, "geometry": { "type": "Point", "coordinates": [ 76.947587, 43.323293 ] } },
{ "type": "Feature", "properties": { "stop_id": 82, "stop_code": null, "stop_name": "Ул. Буденного", "stop_desc": null, "stop_lat": 43.323468, "stop_lon": 76.948078, "zone_id": null, "stop_url": null, "location_type": null, "parent_station": null, "stop_timezone": null, "wheelchair_boarding": null }, "geometry": { "type": "Point", "coordinates": [ 76.948078, 43.323468 ] } },
{ "type": "Feature", "properties": { "stop_id": 83, "stop_code": null, "stop_name": "Ул. Карагандинская", "stop_desc": null, "stop_lat": 43.320855, "stop_lon": 76.946236, "zone_id": null, "stop_url": null, "location_type": null, "parent_station": null, "stop_timezone": null, "wheelchair_boarding": null }, "geometry": { "type": "Point", "coordinates": [ 76.946236, 43.320855 ] } },
{ "type": "Feature", "properties": { "stop_id": 84, "stop_code": null, "stop_name": "Ул. Карагандинская", "stop_desc": null, "stop_lat": 43.321438, "stop_lon": 76.9469, "zone_id": null, "stop_url": null, "location_type": null, "parent_station": null, "stop_timezone": null, "wheelchair_boarding": null }, "geometry": { "type": "Point", "coordinates": [ 76.9469, 43.321438 ] } },
{ "type": "Feature", "properties": { "stop_id": 85, "stop_code": null, "stop_name": "Ахан Серы/ Жумабаева", "stop_desc": null, "stop_lat": 43.317694, "stop_lon": 76.944755, "zone_id": null, "stop_url": null, "location_type": null, "parent_station": null, "stop_timezone": null, "wheelchair_boarding": null }, "geometry": { "type": "Point", "coordinates": [ 76.944755, 43.317694 ] } },
{ "type": "Feature", "properties": { "stop_id": 86, "stop_code": null, "stop_name": "Школа №74", "stop_desc": null, "stop_lat": 43.311175, "stop_lon": 76.944578, "zone_id": null, "stop_url": null, "location_type": null, "parent_station": null, "stop_timezone": null, "wheelchair_boarding": null }, "geometry": { "type": "Point", "coordinates": [ 76.944578, 43.311175 ] } },
{ "type": "Feature", "properties": { "stop_id": 87, "stop_code": null, "stop_name": "Школа №74", "stop_desc": null, "stop_lat": 43.309701, "stop_lon": 76.944313, "zone_id": null, "stop_url": null, "location_type": null, "parent_station": null, "stop_timezone": null, "wheelchair_boarding": null }, "geometry": { "type": "Point", "coordinates": [ 76.944313, 43.309701 ] } },
{ "type": "Feature", "properties": { "stop_id": 88, "stop_code": null, "stop_name": "Пос. Мехзавода", "stop_desc": null, "stop_lat": 43.308006, "stop_lon": 76.940623, "zone_id": null, "stop_url": null, "location_type": null, "parent_station": null, "stop_timezone": null, "wheelchair_boarding": null }, "geometry": { "type": "Point", "coordinates": [ 76.940623, 43.308006 ] } },
{ "type": "Feature", "properties": { "stop_id": 89, "stop_code": null, "stop_name": "Пос. Мехзавода", "stop_desc": null, "stop_lat": 43.307359, "stop_lon": 76.939591, "zone_id": null, "stop_url": null, "location_type": null, "parent_station": null, "stop_timezone": null, "wheelchair_boarding": null }, "geometry": { "type": "Point", "coordinates": [ 76.939591, 43.307359 ] } },
{ "type": "Feature", "properties": { "stop_id": 90, "stop_code": null, "stop_name": "Ясли-сад", "stop_desc": null, "stop_lat": 43.304347, "stop_lon": 76.939795, "zone_id": null, "stop_url": null, "location_type": null, "parent_station": null, "stop_timezone": null, "wheelchair_boarding": null }, "geometry": { "type": "Point", "coordinates": [ 76.939795, 43.304347 ] } },
{ "type": "Feature", "properties": { "stop_id": 91, "stop_code": null, "stop_name": "Ул. Артиллерийская", "stop_desc": null, "stop_lat": 43.30235, "stop_lon": 76.940014, "zone_id": null, "stop_url": null, "location_type": null, "parent_station": null, "stop_timezone": null, "wheelchair_boarding": null }, "geometry": { "type": "Point", "coordinates": [ 76.940014, 43.30235 ] } },
{ "type": "Feature", "properties": { "stop_id": 92, "stop_code": null, "stop_name": "Ул. Артиллерийская", "stop_desc": null, "stop_lat": 43.301651, "stop_lon": 76.939932, "zone_id": null, "stop_url": null, "location_type": null, "parent_station": null, "stop_timezone": null, "wheelchair_boarding": null }, "geometry": { "type": "Point", "coordinates": [ 76.939932, 43.301651 ] } },
{ "type": "Feature", "properties": { "stop_id": 93, "stop_code": null, "stop_name": "Ул. Крамского", "stop_desc": null, "stop_lat": 43.297525, "stop_lon": 76.940127, "zone_id": null, "stop_url": null, "location_type": null, "parent_station": null, "stop_timezone": null, "wheelchair_boarding": null }, "geometry": { "type": "Point", "coordinates": [ 76.940127, 43.297525 ] } },
{ "type": "Feature", "properties": { "stop_id": 94, "stop_code": null, "stop_name": "Ул. Крамского", "stop_desc": null, "stop_lat": 43.297048, "stop_lon": 76.940248, "zone_id": null, "stop_url": null, "location_type": null, "parent_station": null, "stop_timezone": null, "wheelchair_boarding": null }, "geometry": { "type": "Point", "coordinates": [ 76.940248, 43.297048 ] } },
{ "type": "Feature", "properties": { "stop_id": 95, "stop_code": null, "stop_name": "Сейфуллина/Рыскулова", "stop_desc": null, "stop_lat": 43.291897, "stop_lon": 76.940066, "zone_id": null, "stop_url": null, "location_type": null, "parent_station": null, "stop_timezone": null, "wheelchair_boarding": null }, "geometry": { "type": "Point", "coordinates": [ 76.940066, 43.291897 ] } },
{ "type": "Feature", "properties": { "stop_id": 96, "stop_code": null, "stop_name": "Ул. Акпаева", "stop_desc": null, "stop_lat": 43.289304, "stop_lon": 76.940292, "zone_id": null, "stop_url": null, "location_type": null, "parent_station": null, "stop_timezone": null, "wheelchair_boarding": null }, "geometry": { "type": "Point", "coordinates": [ 76.940292, 43.289304 ] } },
{ "type": "Feature", "properties": { "stop_id": 97, "stop_code": null, "stop_name": "Ул. Акпаева", "stop_desc": null, "stop_lat": 43.288516, "stop_lon": 76.940162, "zone_id": null, "stop_url": null, "location_type": null, "parent_station": null, "stop_timezone": null, "wheelchair_boarding": null }, "geometry": { "type": "Point", "coordinates": [ 76.940162, 43.288516 ] } },
{ "type": "Feature", "properties": { "stop_id": 98, "stop_code": null, "stop_name": "Ул. Жансугурова", "stop_desc": null, "stop_lat": 43.285861, "stop_lon": 76.938577, "zone_id": null, "stop_url": null, "location_type": null, "parent_station": null, "stop_timezone": null, "wheelchair_boarding": null }, "geometry": { "type": "Point", "coordinates": [ 76.938577, 43.285861 ] } },
{ "type": "Feature", "properties": { "stop_id": 99, "stop_code": null, "stop_name": "Ул. Жансугурова", "stop_desc": null, "stop_lat": 43.285421, "stop_lon": 76.938393, "zone_id": null, "stop_url": null, "location_type": null, "parent_station": null, "stop_timezone": null, "wheelchair_boarding": null }, "geometry": { "type": "Point", "coordinates": [ 76.938393, 43.285421 ] } },
{ "type": "Feature", "properties": { "stop_id": 100, "stop_code": null, "stop_name": "Ул. Ломоносова", "stop_desc": null, "stop_lat": 43.283129, "stop_lon": 76.938782, "zone_id": null, "stop_url": null, "location_type": null, "parent_station": null, "stop_timezone": null, "wheelchair_boarding": null }, "geometry": { "type": "Point", "coordinates": [ 76.938782, 43.283129 ] } },
{ "type": "Feature", "properties": { "stop_id": 101, "stop_code": null, "stop_name": "ТЭЦ-1", "stop_desc": null, "stop_lat": 43.275651, "stop_lon": 76.931548, "zone_id": null, "stop_url": null, "location_type": null, "parent_station": null, "stop_timezone": null, "wheelchair_boarding": null }, "geometry": { "type": "Point", "coordinates": [ 76.931548, 43.275651 ] } },
{ "type": "Feature", "properties": { "stop_id": 102, "stop_code": null, "stop_name": "ТЭЦ-1", "stop_desc": null, "stop_lat": 43.275483, "stop_lon": 76.931222, "zone_id": null, "stop_url": null, "location_type": null, "parent_station": null, "stop_timezone": null, "wheelchair_boarding": null }, "geometry": { "type": "Point", "coordinates": [ 76.931222, 43.275483 ] } },
{ "type": "Feature", "properties": { "stop_id": 103, "stop_code": null, "stop_name": "Пр. Райымбека", "stop_desc": null, "stop_lat": 43.270615, "stop_lon": 76.930671, "zone_id": null, "stop_url": null, "location_type": null, "parent_station": null, "stop_timezone": null, "wheelchair_boarding": null }, "geometry": { "type": "Point", "coordinates": [ 76.930671, 43.270615 ] } },
{ "type": "Feature", "properties": { "stop_id": 104, "stop_code": null, "stop_name": "Сейфуллина/Райымбека", "stop_desc": null, "stop_lat": 43.270181, "stop_lon": 76.930859, "zone_id": null, "stop_url": null, "location_type": null, "parent_station": null, "stop_timezone": null, "wheelchair_boarding": null }, "geometry": { "type": "Point", "coordinates": [ 76.930859, 43.270181 ] } },
{ "type": "Feature", "properties": { "stop_id": 105, "stop_code": null, "stop_name": "Ул. Наурызбай батыра", "stop_desc": null, "stop_lat": 43.269534, "stop_lon": 76.934704, "zone_id": null, "stop_url": null, "location_type": null, "parent_station": null, "stop_timezone": null, "wheelchair_boarding": null }, "geometry": { "type": "Point", "coordinates": [ 76.934704, 43.269534 ] } },
{ "type": "Feature", "properties": { "stop_id": 106, "stop_code": null, "stop_name": "Пр. Абылай хана", "stop_desc": null, "stop_lat": 43.269865, "stop_lon": 76.940115, "zone_id": null, "stop_url": null, "location_type": null, "parent_station": null, "stop_timezone": null, "wheelchair_boarding": null }, "geometry": { "type": "Point", "coordinates": [ 76.940115, 43.269865 ] } },
{ "type": "Feature", "properties": { "stop_id": 107, "stop_code": null, "stop_name": "Пр. Абылай хана", "stop_desc": null, "stop_lat": 43.270166, "stop_lon": 76.939084, "zone_id": null, "stop_url": null, "location_type": null, "parent_station": null, "stop_timezone": null, "wheelchair_boarding": null }, "geometry": { "type": "Point", "coordinates": [ 76.939084, 43.270166 ] } },
{ "type": "Feature", "properties": { "stop_id": 108, "stop_code": null, "stop_name": "Ул. Панфилова", "stop_desc": null, "stop_lat": 43.270382, "stop_lon": 76.942336, "zone_id": null, "stop_url": null, "location_type": null, "parent_station": null, "stop_timezone": null, "wheelchair_boarding": null }, "geometry": { "type": "Point", "coordinates": [ 76.942336, 43.270382 ] } },
{ "type": "Feature", "properties": { "stop_id": 109, "stop_code": null, "stop_name": "Райымбека/Назарбаева", "stop_desc": null, "stop_lat": 43.270265, "stop_lon": 76.945825, "zone_id": null, "stop_url": null, "location_type": null, "parent_station": null, "stop_timezone": null, "wheelchair_boarding": null }, "geometry": { "type": "Point", "coordinates": [ 76.945825, 43.270265 ] } },
{ "type": "Feature", "properties": { "stop_id": 112, "stop_code": null, "stop_name": "Зелёный базар", "stop_desc": null, "stop_lat": 43.265814, "stop_lon": 76.952881, "zone_id": null, "stop_url": null, "location_type": null, "parent_station": null, "stop_timezone": null, "wheelchair_boarding": null }, "geometry": { "type": "Point", "coordinates": [ 76.952881, 43.265814 ] } },
{ "type": "Feature", "properties": { "stop_id": 114, "stop_code": null, "stop_name": "Гор. поликлиника №1", "stop_desc": null, "stop_lat": 43.26048, "stop_lon": 76.952247, "zone_id": null, "stop_url": null, "location_type": null, "parent_station": null, "stop_timezone": null, "wheelchair_boarding": null }, "geometry": { "type": "Point", "coordinates": [ 76.952247, 43.26048 ] } },
{ "type": "Feature", "properties": { "stop_id": 116, "stop_code": null, "stop_name": "Ул. Макатаева", "stop_desc": null, "stop_lat": 43.263387, "stop_lon": 76.945764, "zone_id": null, "stop_url": null, "location_type": null, "parent_station": null, "stop_timezone": null, "wheelchair_boarding": null }, "geometry": { "type": "Point", "coordinates": [ 76.945764, 43.263387 ] } },
{ "type": "Feature", "properties": { "stop_id": 117, "stop_code": null, "stop_name": "Назарбаева/Макатаева", "stop_desc": null, "stop_lat": 43.263145, "stop_lon": 76.945634, "zone_id": null, "stop_url": null, "location_type": null, "parent_station": null, "stop_timezone": null, "wheelchair_boarding": null }, "geometry": { "type": "Point", "coordinates": [ 76.945634, 43.263145 ] } },
{ "type": "Feature", "properties": { "stop_id": 118, "stop_code": null, "stop_name": "Ул. Кунаева", "stop_desc": null, "stop_lat": 43.264128, "stop_lon": 76.947877, "zone_id": null, "stop_url": null, "location_type": null, "parent_station": null, "stop_timezone": null, "wheelchair_boarding": null }, "geometry": { "type": "Point", "coordinates": [ 76.947877, 43.264128 ] } },
{ "type": "Feature", "properties": { "stop_id": 119, "stop_code": null, "stop_name": "Центр. аптека", "stop_desc": null, "stop_lat": 43.259297, "stop_lon": 76.946115, "zone_id": null, "stop_url": null, "location_type": null, "parent_station": null, "stop_timezone": null, "wheelchair_boarding": null }, "geometry": { "type": "Point", "coordinates": [ 76.946115, 43.259297 ] } },
{ "type": "Feature", "properties": { "stop_id": 120, "stop_code": null, "stop_name": "Ул. Толе би", "stop_desc": null, "stop_lat": 43.256112, "stop_lon": 76.946505, "zone_id": null, "stop_url": null, "location_type": null, "parent_station": null, "stop_timezone": null, "wheelchair_boarding": null }, "geometry": { "type": "Point", "coordinates": [ 76.946505, 43.256112 ] } },
{ "type": "Feature", "properties": { "stop_id": 121, "stop_code": null, "stop_name": "Ул. Толе би", "stop_desc": null, "stop_lat": 43.255506, "stop_lon": 76.946724, "zone_id": null, "stop_url": null, "location_type": null, "parent_station": null, "stop_timezone": null, "wheelchair_boarding": null }, "geometry": { "type": "Point", "coordinates": [ 76.946724, 43.255506 ] } },
{ "type": "Feature", "properties": { "stop_id": 122, "stop_code": null, "stop_name": "Ул. Карасай батыра", "stop_desc": null, "stop_lat": 43.251882, "stop_lon": 76.947089, "zone_id": null, "stop_url": null, "location_type": null, "parent_station": null, "stop_timezone": null, "wheelchair_boarding": null }, "geometry": { "type": "Point", "coordinates": [ 76.947089, 43.251882 ] } },
{ "type": "Feature", "properties": { "stop_id": 123, "stop_code": null, "stop_name": "Ул. Карасай батыра", "stop_desc": null, "stop_lat": 43.251045, "stop_lon": 76.947321, "zone_id": null, "stop_url": null, "location_type": null, "parent_station": null, "stop_timezone": null, "wheelchair_boarding": null }, "geometry": { "type": "Point", "coordinates": [ 76.947321, 43.251045 ] } },
{ "type": "Feature", "properties": { "stop_id": 124, "stop_code": null, "stop_name": "Ул. Шевченко", "stop_desc": null, "stop_lat": 43.246774, "stop_lon": 76.947829, "zone_id": null, "stop_url": null, "location_type": null, "parent_station": null, "stop_timezone": null, "wheelchair_boarding": null }, "geometry": { "type": "Point", "coordinates": [ 76.947829, 43.246774 ] } },
{ "type": "Feature", "properties": { "stop_id": 125, "stop_code": null, "stop_name": "Ул. Шевченко", "stop_desc": null, "stop_lat": 43.245541, "stop_lon": 76.947885, "zone_id": null, "stop_url": null, "location_type": null, "parent_station": null, "stop_timezone": null, "wheelchair_boarding": null }, "geometry": { "type": "Point", "coordinates": [ 76.947885, 43.245541 ] } },
{ "type": "Feature", "properties": { "stop_id": 126, "stop_code": null, "stop_name": "Назарбаева/Абая", "stop_desc": null, "stop_lat": 43.243258, "stop_lon": 76.948318, "zone_id": null, "stop_url": null, "location_type": null, "parent_station": null, "stop_timezone": null, "wheelchair_boarding": null }, "geometry": { "type": "Point", "coordinates": [ 76.948318, 43.243258 ] } },
{ "type": "Feature", "properties": { "stop_id": 127, "stop_code": null, "stop_name": "Назарбаева/Абая", "stop_desc": null, "stop_lat": 43.240764, "stop_lon": 76.948485, "zone_id": null, "stop_url": null, "location_type": null, "parent_station": null, "stop_timezone": null, "wheelchair_boarding": null }, "geometry": { "type": "Point", "coordinates": [ 76.948485, 43.240764 ] } },
{ "type": "Feature", "properties": { "stop_id": 130, "stop_code": null, "stop_name": "Назарбаева/Аль-Фараби", "stop_desc": null, "stop_lat": 43.227154, "stop_lon": 76.950314, "zone_id": null, "stop_url": null, "location_type": null, "parent_station": null, "stop_timezone": null, "wheelchair_boarding": null }, "geometry": { "type": "Point", "coordinates": [ 76.950314, 43.227154 ] } },
{ "type": "Feature", "properties": { "stop_id": 131, "stop_code": null, "stop_name": "Ул. Хаджи Мукана", "stop_desc": null, "stop_lat": 43.225429, "stop_lon": 76.952617, "zone_id": null, "stop_url": null, "location_type": null, "parent_station": null, "stop_timezone": null, "wheelchair_boarding": null }, "geometry": { "type": "Point", "coordinates": [ 76.952617, 43.225429 ] } },
{ "type": "Feature", "properties": { "stop_id": 132, "stop_code": null, "stop_name": "Назарбаева/Хаджи Мукана", "stop_desc": null, "stop_lat": 43.225354, "stop_lon": 76.952801, "zone_id": null, "stop_url": null, "location_type": null, "parent_station": null, "stop_timezone": null, "wheelchair_boarding": null }, "geometry": { "type": "Point", "coordinates": [ 76.952801, 43.225354 ] } },
{ "type": "Feature", "properties": { "stop_id": 133, "stop_code": null, "stop_name": "НИШ", "stop_desc": null, "stop_lat": 43.216325, "stop_lon": 76.951879, "zone_id": null, "stop_url": null, "location_type": null, "parent_station": null, "stop_timezone": null, "wheelchair_boarding": null }, "geometry": { "type": "Point", "coordinates": [ 76.951879, 43.216325 ] } },
{ "type": "Feature", "properties": { "stop_id": 135, "stop_code": null, "stop_name": "Сейфуллина/Шолохова", "stop_desc": null, "stop_lat": 43.336486, "stop_lon": 76.94696, "zone_id": null, "stop_url": null, "location_type": null, "parent_station": null, "stop_timezone": null, "wheelchair_boarding": null }, "geometry": { "type": "Point", "coordinates": [ 76.94696, 43.336486 ] } },
{ "type": "Feature", "properties": { "stop_id": 136, "stop_code": null, "stop_name": "Сейфуллина/Шолохова", "stop_desc": null, "stop_lat": 43.335623, "stop_lon": 76.946332, "zone_id": null, "stop_url": null, "location_type": null, "parent_station": null, "stop_timezone": null, "wheelchair_boarding": null }, "geometry": { "type": "Point", "coordinates": [ 76.946332, 43.335623 ] } },
{ "type": "Feature", "properties": { "stop_id": 137, "stop_code": null, "stop_name": "Ул. Чернышевского", "stop_desc": null, "stop_lat": 43.332383, "stop_lon": 76.944619, "zone_id": null, "stop_url": null, "location_type": null, "parent_station": null, "stop_timezone": null, "wheelchair_boarding": null }, "geometry": { "type": "Point", "coordinates": [ 76.944619, 43.332383 ] } },
{ "type": "Feature", "properties": { "stop_id": 138, "stop_code": null, "stop_name": "Ул. Чернышевского", "stop_desc": null, "stop_lat": 43.331738, "stop_lon": 76.94413, "zone_id": null, "stop_url": null, "location_type": null, "parent_station": null, "stop_timezone": null, "wheelchair_boarding": null }, "geometry": { "type": "Point", "coordinates": [ 76.94413, 43.331738 ] } },
{ "type": "Feature", "properties": { "stop_id": 139, "stop_code": null, "stop_name": "Ул. Майбороды", "stop_desc": null, "stop_lat": 43.328797, "stop_lon": 76.94257, "zone_id": null, "stop_url": null, "location_type": null, "parent_station": null, "stop_timezone": null, "wheelchair_boarding": null }, "geometry": { "type": "Point", "coordinates": [ 76.94257, 43.328797 ] } },
{ "type": "Feature", "properties": { "stop_id": 140, "stop_code": null, "stop_name": "Ул. Майбороды", "stop_desc": null, "stop_lat": 43.327753, "stop_lon": 76.941861, "zone_id": null, "stop_url": null, "location_type": null, "parent_station": null, "stop_timezone": null, "wheelchair_boarding": null }, "geometry": { "type": "Point", "coordinates": [ 76.941861, 43.327753 ] } },
{ "type": "Feature", "properties": { "stop_id": 141, "stop_code": null, "stop_name": "ЗАГС", "stop_desc": null, "stop_lat": 43.324357, "stop_lon": 76.939943, "zone_id": null, "stop_url": null, "location_type": null, "parent_station": null, "stop_timezone": null, "wheelchair_boarding": null }, "geometry": { "type": "Point", "coordinates": [ 76.939943, 43.324357 ] } },
{ "type": "Feature", "properties": { "stop_id": 142, "stop_code": null, "stop_name": "ЗАГС", "stop_desc": null, "stop_lat": 43.324003, "stop_lon": 76.939878, "zone_id": null, "stop_url": null, "location_type": null, "parent_station": null, "stop_timezone": null, "wheelchair_boarding": null }, "geometry": { "type": "Point", "coordinates": [ 76.939878, 43.324003 ] } },
{ "type": "Feature", "properties": { "stop_id": 143, "stop_code": null, "stop_name": "Гимназия им. М. Турлыхановой", "stop_desc": null, "stop_lat": 43.320306, "stop_lon": 76.939438, "zone_id": null, "stop_url": null, "location_type": null, "parent_station": null, "stop_timezone": null, "wheelchair_boarding": null }, "geometry": { "type": "Point", "coordinates": [ 76.939438, 43.320306 ] } },
{ "type": "Feature", "properties": { "stop_id": 144, "stop_code": null, "stop_name": "Гимназия им. М. Турлыхановой", "stop_desc": null, "stop_lat": 43.319606, "stop_lon": 76.93934, "zone_id": null, "stop_url": null, "location_type": null, "parent_station": null, "stop_timezone": null, "wheelchair_boarding": null }, "geometry": { "type": "Point", "coordinates": [ 76.93934, 43.319606 ] } },
{ "type": "Feature", "properties": { "stop_id": 145, "stop_code": null, "stop_name": "Сейфуллина/Жумабаева", "stop_desc": null, "stop_lat": 43.3173, "stop_lon": 76.939481, "zone_id": null, "stop_url": null, "location_type": null, "parent_station": null, "stop_timezone": null, "wheelchair_boarding": null }, "geometry": { "type": "Point", "coordinates": [ 76.939481, 43.3173 ] } },
{ "type": "Feature", "properties": { "stop_id": 146, "stop_code": null, "stop_name": "Сейфуллина/Жумабаева", "stop_desc": null, "stop_lat": 43.316651, "stop_lon": 76.939364, "zone_id": null, "stop_url": null, "location_type": null, "parent_station": null, "stop_timezone": null, "wheelchair_boarding": null }, "geometry": { "type": "Point", "coordinates": [ 76.939364, 43.316651 ] } },
{ "type": "Feature", "properties": { "stop_id": 147, "stop_code": null, "stop_name": "Ул. Дулатова", "stop_desc": null, "stop_lat": 43.313161, "stop_lon": 76.939514, "zone_id": null, "stop_url": null, "location_type": null, "parent_station": null, "stop_timezone": null, "wheelchair_boarding": null }, "geometry": { "type": "Point", "coordinates": [ 76.939514, 43.313161 ] } },
{ "type": "Feature", "properties": { "stop_id": 148, "stop_code": null, "stop_name": "Ул. Дулатова", "stop_desc": null, "stop_lat": 43.312657, "stop_lon": 76.939378, "zone_id": null, "stop_url": null, "location_type": null, "parent_station": null, "stop_timezone": null, "wheelchair_boarding": null }, "geometry": { "type": "Point", "coordinates": [ 76.939378, 43.312657 ] } },
{ "type": "Feature", "properties": { "stop_id": 149, "stop_code": null, "stop_name": "Пос. Мехзавода", "stop_desc": null, "stop_lat": 43.308732, "stop_lon": 76.939701, "zone_id": null, "stop_url": null, "location_type": null, "parent_station": null, "stop_timezone": null, "wheelchair_boarding": null }, "geometry": { "type": "Point", "coordinates": [ 76.939701, 43.308732 ] } },
{ "type": "Feature", "properties": { "stop_id": 150, "stop_code": null, "stop_name": "Ул. Иркутская", "stop_desc": null, "stop_lat": 43.281371, "stop_lon": 76.935493, "zone_id": null, "stop_url": null, "location_type": null, "parent_station": null, "stop_timezone": null, "wheelchair_boarding": null }, "geometry": { "type": "Point", "coordinates": [ 76.935493, 43.281371 ] } },
{ "type": "Feature", "properties": { "stop_id": 151, "stop_code": null, "stop_name": "Ул. Иркутская", "stop_desc": null, "stop_lat": 43.279976, "stop_lon": 76.934396, "zone_id": null, "stop_url": null, "location_type": null, "parent_station": null, "stop_timezone": null, "wheelchair_boarding": null }, "geometry": { "type": "Point", "coordinates": [ 76.934396, 43.279976 ] } },
{ "type": "Feature", "properties": { "stop_id": 152, "stop_code": null, "stop_name": "Райымбека/Сейфуллина", "stop_desc": null, "stop_lat": 43.269477, "stop_lon": 76.929839, "zone_id": null, "stop_url": null, "location_type": null, "parent_station": null, "stop_timezone": null, "wheelchair_boarding": null }, "geometry": { "type": "Point", "coordinates": [ 76.929839, 43.269477 ] } },
{ "type": "Feature", "properties": { "stop_id": 153, "stop_code": null, "stop_name": "Ул. Торетай", "stop_desc": null, "stop_lat": 43.268972, "stop_lon": 76.925087, "zone_id": null, "stop_url": null, "location_type": null, "parent_station": null, "stop_timezone": null, "wheelchair_boarding": null }, "geometry": { "type": "Point", "coordinates": [ 76.925087, 43.268972 ] } },
{ "type": "Feature", "properties": { "stop_id": 154, "stop_code": null, "stop_name": "Ул. Торетай", "stop_desc": null, "stop_lat": 43.268998, "stop_lon": 76.923644, "zone_id": null, "stop_url": null, "location_type": null, "parent_station": null, "stop_timezone": null, "wheelchair_boarding": null }, "geometry": { "type": "Point", "coordinates": [ 76.923644, 43.268998 ] } },
{ "type": "Feature", "properties": { "stop_id": 155, "stop_code": null, "stop_name": "КазНИВИ", "stop_desc": null, "stop_lat": 43.268128, "stop_lon": 76.918451, "zone_id": null, "stop_url": null, "location_type": null, "parent_station": null, "stop_timezone": null, "wheelchair_boarding": null }, "geometry": { "type": "Point", "coordinates": [ 76.918451, 43.268128 ] } },
{ "type": "Feature", "properties": { "stop_id": 156, "stop_code": null, "stop_name": "КазНИВИ", "stop_desc": null, "stop_lat": 43.268159, "stop_lon": 76.917667, "zone_id": null, "stop_url": null, "location_type": null, "parent_station": null, "stop_timezone": null, "wheelchair_boarding": null }, "geometry": { "type": "Point", "coordinates": [ 76.917667, 43.268159 ] } },
{ "type": "Feature", "properties": { "stop_id": 157, "stop_code": null, "stop_name": "Ж/д мост", "stop_desc": null, "stop_lat": 43.266957, "stop_lon": 76.913544, "zone_id": null, "stop_url": null, "location_type": null, "parent_station": null, "stop_timezone": null, "wheelchair_boarding": null }, "geometry": { "type": "Point", "coordinates": [ 76.913544, 43.266957 ] } },
{ "type": "Feature", "properties": { "stop_id": 158, "stop_code": null, "stop_name": "Ул. Байзакова", "stop_desc": null, "stop_lat": 43.266381, "stop_lon": 76.911111, "zone_id": null, "stop_url": null, "location_type": null, "parent_station": null, "stop_timezone": null, "wheelchair_boarding": null }, "geometry": { "type": "Point", "coordinates": [ 76.911111, 43.266381 ] } },
{ "type": "Feature", "properties": { "stop_id": 161, "stop_code": null, "stop_name": "Ул. Гончарова", "stop_desc": null, "stop_lat": 43.262172, "stop_lon": 76.896561, "zone_id": null, "stop_url": null, "location_type": null, "parent_station": null, "stop_timezone": null, "wheelchair_boarding": null }, "geometry": { "type": "Point", "coordinates": [ 76.896561, 43.262172 ] } },
{ "type": "Feature", "properties": { "stop_id": 162, "stop_code": null, "stop_name": "Райымбека/Гончарова", "stop_desc": null, "stop_lat": 43.262033, "stop_lon": 76.894616, "zone_id": null, "stop_url": null, "location_type": null, "parent_station": null, "stop_timezone": null, "wheelchair_boarding": null }, "geometry": { "type": "Point", "coordinates": [ 76.894616, 43.262033 ] } },
{ "type": "Feature", "properties": { "stop_id": 163, "stop_code": null, "stop_name": "Ул. Крылова", "stop_desc": null, "stop_lat": 43.260125, "stop_lon": 76.89089, "zone_id": null, "stop_url": null, "location_type": null, "parent_station": null, "stop_timezone": null, "wheelchair_boarding": null }, "geometry": { "type": "Point", "coordinates": [ 76.89089, 43.260125 ] } },
{ "type": "Feature", "properties": { "stop_id": 164, "stop_code": null, "stop_name": "Ул. Крылова", "stop_desc": null, "stop_lat": 43.260346, "stop_lon": 76.889967, "zone_id": null, "stop_url": null, "location_type": null, "parent_station": null, "stop_timezone": null, "wheelchair_boarding": null }, "geometry": { "type": "Point", "coordinates": [ 76.889967, 43.260346 ] } },
{ "type": "Feature", "properties": { "stop_id": 165, "stop_code": null, "stop_name": "Райымбека/Розыбакиева", "stop_desc": null, "stop_lat": 43.258125, "stop_lon": 76.88262, "zone_id": null, "stop_url": null, "location_type": null, "parent_station": null, "stop_timezone": null, "wheelchair_boarding": null }, "geometry": { "type": "Point", "coordinates": [ 76.88262, 43.258125 ] } },
{ "type": "Feature", "properties": { "stop_id": 166, "stop_code": null, "stop_name": "Райымбека/Розыбакиева", "stop_desc": null, "stop_lat": 43.257526, "stop_lon": 76.882203, "zone_id": null, "stop_url": null, "location_type": null, "parent_station": null, "stop_timezone": null, "wheelchair_boarding": null }, "geometry": { "type": "Point", "coordinates": [ 76.882203, 43.257526 ] } },
{ "type": "Feature", "properties": { "stop_id": 167, "stop_code": null, "stop_name": "Ул. Тургут Озала", "stop_desc": null, "stop_lat": 43.258171, "stop_lon": 76.877804, "zone_id": null, "stop_url": null, "location_type": null, "parent_station": null, "stop_timezone": null, "wheelchair_boarding": null }, "geometry": { "type": "Point", "coordinates": [ 76.877804, 43.258171 ] } },
{ "type": "Feature", "properties": { "stop_id": 168, "stop_code": null, "stop_name": "Ул. Тлендиева", "stop_desc": null, "stop_lat": 43.257986, "stop_lon": 76.871197, "zone_id": null, "stop_url": null, "location_type": null, "parent_station": null, "stop_timezone": null, "wheelchair_boarding": null }, "geometry": { "type": "Point", "coordinates": [ 76.871197, 43.257986 ] } },
{ "type": "Feature", "properties": { "stop_id": 169, "stop_code": null, "stop_name": "Ул. Тлендиева", "stop_desc": null, "stop_lat": 43.257864, "stop_lon": 76.868335, "zone_id": null, "stop_url": null, "location_type": null, "parent_station": null, "stop_timezone": null, "wheelchair_boarding": null }, "geometry": { "type": "Point", "coordinates": [ 76.868335, 43.257864 ] } },
{ "type": "Feature", "properties": { "stop_id": 170, "stop_code": null, "stop_name": "КазДорНИИ", "stop_desc": null, "stop_lat": 43.254888, "stop_lon": 76.861842, "zone_id": null, "stop_url": null, "location_type": null, "parent_station": null, "stop_timezone": null, "wheelchair_boarding": null }, "geometry": { "type": "Point", "coordinates": [ 76.861842, 43.254888 ] } },
{ "type": "Feature", "properties": { "stop_id": 171, "stop_code": null, "stop_name": "КазДорНИИ", "stop_desc": null, "stop_lat": 43.253953, "stop_lon": 76.860971, "zone_id": null, "stop_url": null, "location_type": null, "parent_station": null, "stop_timezone": null, "wheelchair_boarding": null }, "geometry": { "type": "Point", "coordinates": [ 76.860971, 43.253953 ] } },
{ "type": "Feature", "properties": { "stop_id": 172, "stop_code": null, "stop_name": "КазАДИ", "stop_desc": null, "stop_lat": 43.252051, "stop_lon": 76.856842, "zone_id": null, "stop_url": null, "location_type": null, "parent_station": null, "stop_timezone": null, "wheelchair_boarding": null }, "geometry": { "type": "Point", "coordinates": [ 76.856842, 43.252051 ] } },
{ "type": "Feature", "properties": { "stop_id": 173, "stop_code": null, "stop_name": "КазАДИ", "stop_desc": null, "stop_lat": 43.250934, "stop_lon": 76.853575, "zone_id": null, "stop_url": null, "location_type": null, "parent_station": null, "stop_timezone": null, "wheelchair_boarding": null }, "geometry": { "type": "Point", "coordinates": [ 76.853575, 43.250934 ] } },
{ "type": "Feature", "properties": { "stop_id": 174, "stop_code": null, "stop_name": "Ул. Утеген батыра", "stop_desc": null, "stop_lat": 43.249734, "stop_lon": 76.853689, "zone_id": null, "stop_url": null, "location_type": null, "parent_station": null, "stop_timezone": null, "wheelchair_boarding": null }, "geometry": { "type": "Point", "coordinates": [ 76.853689, 43.249734 ] } },
{ "type": "Feature", "properties": { "stop_id": 175, "stop_code": null, "stop_name": "Утеген батыра/Толе би", "stop_desc": null, "stop_lat": 43.247031, "stop_lon": 76.855475, "zone_id": null, "stop_url": null, "location_type": null, "parent_station": null, "stop_timezone": null, "wheelchair_boarding": null }, "geometry": { "type": "Point", "coordinates": [ 76.855475, 43.247031 ] } },
{ "type": "Feature", "properties": { "stop_id": 178, "stop_code": null, "stop_name": "ЗАГС", "stop_desc": null, "stop_lat": 43.23996, "stop_lon": 76.858847, "zone_id": null, "stop_url": null, "location_type": null, "parent_station": null, "stop_timezone": null, "wheelchair_boarding": null }, "geometry": { "type": "Point", "coordinates": [ 76.858847, 43.23996 ] } },
{ "type": "Feature", "properties": { "stop_id": 179, "stop_code": null, "stop_name": "ЗАГС", "stop_desc": null, "stop_lat": 43.23913, "stop_lon": 76.859392, "zone_id": null, "stop_url": null, "location_type": null, "parent_station": null, "stop_timezone": null, "wheelchair_boarding": null }, "geometry": { "type": "Point", "coordinates": [ 76.859392, 43.23913 ] } },
{ "type": "Feature", "properties": { "stop_id": 180, "stop_code": null, "stop_name": "Ул. Кабдолова", "stop_desc": null, "stop_lat": 43.238279, "stop_lon": 76.858468, "zone_id": null, "stop_url": null, "location_type": null, "parent_station": null, "stop_timezone": null, "wheelchair_boarding": null }, "geometry": { "type": "Point", "coordinates": [ 76.858468, 43.238279 ] } },
{ "type": "Feature", "properties": { "stop_id": 184, "stop_code": null, "stop_name": "Алтынсарина/Жубанова", "stop_desc": null, "stop_lat": 43.234383, "stop_lon": 76.853605, "zone_id": null, "stop_url": null, "location_type": null, "parent_station": null, "stop_timezone": null, "wheelchair_boarding": null }, "geometry": { "type": "Point", "coordinates": [ 76.853605, 43.234383 ] } },
{ "type": "Feature", "properties": { "stop_id": 185, "stop_code": null, "stop_name": "Дет. гор. больница №2", "stop_desc": null, "stop_lat": 43.231652, "stop_lon": 76.855875, "zone_id": null, "stop_url": null, "location_type": null, "parent_station": null, "stop_timezone": null, "wheelchair_boarding": null }, "geometry": { "type": "Point", "coordinates": [ 76.855875, 43.231652 ] } },
{ "type": "Feature", "properties": { "stop_id": 188, "stop_code": null, "stop_name": "Алтынсарина/Абая", "stop_desc": null, "stop_lat": 43.227316, "stop_lon": 76.861891, "zone_id": null, "stop_url": null, "location_type": null, "parent_station": null, "stop_timezone": null, "wheelchair_boarding": null }, "geometry": { "type": "Point", "coordinates": [ 76.861891, 43.227316 ] } },
{ "type": "Feature", "properties": { "stop_id": 190, "stop_code": null, "stop_name": "Мкр. №3", "stop_desc": null, "stop_lat": 43.221981, "stop_lon": 76.855191, "zone_id": null, "stop_url": null, "location_type": null, "parent_station": null, "stop_timezone": null, "wheelchair_boarding": null }, "geometry": { "type": "Point", "coordinates": [ 76.855191, 43.221981 ] } },
{ "type": "Feature", "properties": { "stop_id": 191, "stop_code": null, "stop_name": "Мкр. №6", "stop_desc": null, "stop_lat": 43.222198, "stop_lon": 76.856174, "zone_id": null, "stop_url": null, "location_type": null, "parent_station": null, "stop_timezone": null, "wheelchair_boarding": null }, "geometry": { "type": "Point", "coordinates": [ 76.856174, 43.222198 ] } },
{ "type": "Feature", "properties": { "stop_id": 192, "stop_code": null, "stop_name": "Сейфуллина/Райымбека", "stop_desc": null, "stop_lat": 43.267561, "stop_lon": 76.93104, "zone_id": null, "stop_url": null, "location_type": null, "parent_station": null, "stop_timezone": null, "wheelchair_boarding": null }, "geometry": { "type": "Point", "coordinates": [ 76.93104, 43.267561 ] } },
{ "type": "Feature", "properties": { "stop_id": 193, "stop_code": null, "stop_name": "Ул. Маметовой", "stop_desc": null, "stop_lat": 43.266675, "stop_lon": 76.931275, "zone_id": null, "stop_url": null, "location_type": null, "parent_station": null, "stop_timezone": null, "wheelchair_boarding": null }, "geometry": { "type": "Point", "coordinates": [ 76.931275, 43.266675 ] } },
{ "type": "Feature", "properties": { "stop_id": 194, "stop_code": null, "stop_name": "Ул. Маметовой", "stop_desc": null, "stop_lat": 43.26591, "stop_lon": 76.93125, "zone_id": null, "stop_url": null, "location_type": null, "parent_station": null, "stop_timezone": null, "wheelchair_boarding": null }, "geometry": { "type": "Point", "coordinates": [ 76.93125, 43.26591 ] } },
{ "type": "Feature", "properties": { "stop_id": 195, "stop_code": null, "stop_name": "Сейфуллина/Макатаева", "stop_desc": null, "stop_lat": 43.263545, "stop_lon": 76.931659, "zone_id": null, "stop_url": null, "location_type": null, "parent_station": null, "stop_timezone": null, "wheelchair_boarding": null }, "geometry": { "type": "Point", "coordinates": [ 76.931659, 43.263545 ] } },
{ "type": "Feature", "properties": { "stop_id": 196, "stop_code": null, "stop_name": "Ул. Макатаева", "stop_desc": null, "stop_lat": 43.262038, "stop_lon": 76.93174, "zone_id": null, "stop_url": null, "location_type": null, "parent_station": null, "stop_timezone": null, "wheelchair_boarding": null }, "geometry": { "type": "Point", "coordinates": [ 76.93174, 43.262038 ] } },
{ "type": "Feature", "properties": { "stop_id": 197, "stop_code": null, "stop_name": "Сейфуллина/Гоголя", "stop_desc": null, "stop_lat": 43.259399, "stop_lon": 76.932246, "zone_id": null, "stop_url": null, "location_type": null, "parent_station": null, "stop_timezone": null, "wheelchair_boarding": null }, "geometry": { "type": "Point", "coordinates": [ 76.932246, 43.259399 ] } },
{ "type": "Feature", "properties": { "stop_id": 198, "stop_code": null, "stop_name": "Ул. Чокина", "stop_desc": null, "stop_lat": 43.257269, "stop_lon": 76.908442, "zone_id": null, "stop_url": null, "location_type": null, "parent_station": null, "stop_timezone": null, "wheelchair_boarding": null }, "geometry": { "type": "Point", "coordinates": [ 76.908442, 43.257269 ] } },
{ "type": "Feature", "properties": { "stop_id": 199, "stop_code": null, "stop_name": "Гимназия №15", "stop_desc": null, "stop_lat": 43.258995, "stop_lon": 76.931465, "zone_id": null, "stop_url": null, "location_type": null, "parent_station": null, "stop_timezone": null, "wheelchair_boarding": null }, "geometry": { "type": "Point", "coordinates": [ 76.931465, 43.258995 ] } },
{ "type": "Feature", "properties": { "stop_id": 200, "stop_code": null, "stop_name": "Гоголя/Байтурсынова", "stop_desc": null, "stop_lat": 43.258482, "stop_lon": 76.925361, "zone_id": null, "stop_url": null, "location_type": null, "parent_station": null, "stop_timezone": null, "wheelchair_boarding": null }, "geometry": { "type": "Point", "coordinates": [ 76.925361, 43.258482 ] } },
{ "type": "Feature", "properties": { "stop_id": 201, "stop_code": null, "stop_name": "Гоголя/Байтурсынова", "stop_desc": null, "stop_lat": 43.258524, "stop_lon": 76.924454, "zone_id": null, "stop_url": null, "location_type": null, "parent_station": null, "stop_timezone": null, "wheelchair_boarding": null }, "geometry": { "type": "Point", "coordinates": [ 76.924454, 43.258524 ] } },
{ "type": "Feature", "properties": { "stop_id": 202, "stop_code": null, "stop_name": "Ул. Муратбаева", "stop_desc": null, "stop_lat": 43.258038, "stop_lon": 76.917027, "zone_id": null, "stop_url": null, "location_type": null, "parent_station": null, "stop_timezone": null, "wheelchair_boarding": null }, "geometry": { "type": "Point", "coordinates": [ 76.917027, 43.258038 ] } },
{ "type": "Feature", "properties": { "stop_id": 203, "stop_code": null, "stop_name": "Ул. Муратбаева", "stop_desc": null, "stop_lat": 43.258041, "stop_lon": 76.918521, "zone_id": null, "stop_url": null, "location_type": null, "parent_station": null, "stop_timezone": null, "wheelchair_boarding": null }, "geometry": { "type": "Point", "coordinates": [ 76.918521, 43.258041 ] } },
{ "type": "Feature", "properties": { "stop_id": 204, "stop_code": null, "stop_name": "Ул. Чокина", "stop_desc": null, "stop_lat": 43.25751, "stop_lon": 76.909969, "zone_id": null, "stop_url": null, "location_type": null, "parent_station": null, "stop_timezone": null, "wheelchair_boarding": null }, "geometry": { "type": "Point", "coordinates": [ 76.909969, 43.25751 ] } },
{ "type": "Feature", "properties": { "stop_id": 205, "stop_code": null, "stop_name": "Ул. Ауэзова", "stop_desc": null, "stop_lat": 43.256764, "stop_lon": 76.902462, "zone_id": null, "stop_url": null, "location_type": null, "parent_station": null, "stop_timezone": null, "wheelchair_boarding": null }, "geometry": { "type": "Point", "coordinates": [ 76.902462, 43.256764 ] } },
{ "type": "Feature", "properties": { "stop_id": 206, "stop_code": null, "stop_name": "Ул. Гоголя", "stop_desc": null, "stop_lat": 43.256211, "stop_lon": 76.901863, "zone_id": null, "stop_url": null, "location_type": null, "parent_station": null, "stop_timezone": null, "wheelchair_boarding": null }, "geometry": { "type": "Point", "coordinates": [ 76.901863, 43.256211 ] } },
{ "type": "Feature", "properties": { "stop_id": 207, "stop_code": null, "stop_name": "Ауэзова/Толе би", "stop_desc": null, "stop_lat": 43.252357, "stop_lon": 76.902425, "zone_id": null, "stop_url": null, "location_type": null, "parent_station": null, "stop_timezone": null, "wheelchair_boarding": null }, "geometry": { "type": "Point", "coordinates": [ 76.902425, 43.252357 ] } },
{ "type": "Feature", "properties": { "stop_id": 208, "stop_code": null, "stop_name": "Ауэзова/Толе би", "stop_desc": null, "stop_lat": 43.251537, "stop_lon": 76.902413, "zone_id": null, "stop_url": null, "location_type": null, "parent_station": null, "stop_timezone": null, "wheelchair_boarding": null }, "geometry": { "type": "Point", "coordinates": [ 76.902413, 43.251537 ] } },
{ "type": "Feature", "properties": { "stop_id": 209, "stop_code": null, "stop_name": "Диагност-й центр", "stop_desc": null, "stop_lat": 43.246141, "stop_lon": 76.903094, "zone_id": null, "stop_url": null, "location_type": null, "parent_station": null, "stop_timezone": null, "wheelchair_boarding": null }, "geometry": { "type": "Point", "coordinates": [ 76.903094, 43.246141 ] } },
{ "type": "Feature", "properties": { "stop_id": 210, "stop_code": null, "stop_name": "Диагност-й центр", "stop_desc": null, "stop_lat": 43.246408, "stop_lon": 76.90318, "zone_id": null, "stop_url": null, "location_type": null, "parent_station": null, "stop_timezone": null, "wheelchair_boarding": null }, "geometry": { "type": "Point", "coordinates": [ 76.90318, 43.246408 ] } },
{ "type": "Feature", "properties": { "stop_id": 211, "stop_code": null, "stop_name": "Ул. Шевченко", "stop_desc": null, "stop_lat": 43.24267, "stop_lon": 76.903563, "zone_id": null, "stop_url": null, "location_type": null, "parent_station": null, "stop_timezone": null, "wheelchair_boarding": null }, "geometry": { "type": "Point", "coordinates": [ 76.903563, 43.24267 ] } },
{ "type": "Feature", "properties": { "stop_id": 212, "stop_code": null, "stop_name": "Ул. Шевченко", "stop_desc": null, "stop_lat": 43.24182, "stop_lon": 76.903808, "zone_id": null, "stop_url": null, "location_type": null, "parent_station": null, "stop_timezone": null, "wheelchair_boarding": null }, "geometry": { "type": "Point", "coordinates": [ 76.903808, 43.24182 ] } },
{ "type": "Feature", "properties": { "stop_id": 213, "stop_code": null, "stop_name": "Ауэзова/Абая", "stop_desc": null, "stop_lat": 43.239027, "stop_lon": 76.904026, "zone_id": null, "stop_url": null, "location_type": null, "parent_station": null, "stop_timezone": null, "wheelchair_boarding": null }, "geometry": { "type": "Point", "coordinates": [ 76.904026, 43.239027 ] } },
{ "type": "Feature", "properties": { "stop_id": 214, "stop_code": null, "stop_name": "Сатпаева/Ауэзова", "stop_desc": null, "stop_lat": 43.235557, "stop_lon": 76.903893, "zone_id": null, "stop_url": null, "location_type": null, "parent_station": null, "stop_timezone": null, "wheelchair_boarding": null }, "geometry": { "type": "Point", "coordinates": [ 76.903893, 43.235557 ] } },
{ "type": "Feature", "properties": { "stop_id": 215, "stop_code": null, "stop_name": "Сатпаева/Гагарина", "stop_desc": null, "stop_lat": 43.234902, "stop_lon": 76.896143, "zone_id": null, "stop_url": null, "location_type": null, "parent_station": null, "stop_timezone": null, "wheelchair_boarding": null }, "geometry": { "type": "Point", "coordinates": [ 76.896143, 43.234902 ] } },
{ "type": "Feature", "properties": { "stop_id": 218, "stop_code": null, "stop_name": "Сатпаева/Тургут Озала", "stop_desc": null, "stop_lat": 43.234047, "stop_lon": 76.882774, "zone_id": null, "stop_url": null, "location_type": null, "parent_station": null, "stop_timezone": null, "wheelchair_boarding": null }, "geometry": { "type": "Point", "coordinates": [ 76.882774, 43.234047 ] } },
{ "type": "Feature", "properties": { "stop_id": 219, "stop_code": null, "stop_name": "Ул. Тургут Озала", "stop_desc": null, "stop_lat": 43.233956, "stop_lon": 76.882692, "zone_id": null, "stop_url": null, "location_type": null, "parent_station": null, "stop_timezone": null, "wheelchair_boarding": null }, "geometry": { "type": "Point", "coordinates": [ 76.882692, 43.233956 ] } },
{ "type": "Feature", "properties": { "stop_id": 220, "stop_code": null, "stop_name": "Ул. Брусиловского", "stop_desc": null, "stop_lat": 43.233722, "stop_lon": 76.878848, "zone_id": null, "stop_url": null, "location_type": null, "parent_station": null, "stop_timezone": null, "wheelchair_boarding": null }, "geometry": { "type": "Point", "coordinates": [ 76.878848, 43.233722 ] } },
{ "type": "Feature", "properties": { "stop_id": 221, "stop_code": null, "stop_name": "Мкр. №8", "stop_desc": null, "stop_lat": 43.229862, "stop_lon": 76.872005, "zone_id": null, "stop_url": null, "location_type": null, "parent_station": null, "stop_timezone": null, "wheelchair_boarding": null }, "geometry": { "type": "Point", "coordinates": [ 76.872005, 43.229862 ] } },
{ "type": "Feature", "properties": { "stop_id": 222, "stop_code": null, "stop_name": "Мкр. №8", "stop_desc": null, "stop_lat": 43.229782, "stop_lon": 76.872292, "zone_id": null, "stop_url": null, "location_type": null, "parent_station": null, "stop_timezone": null, "wheelchair_boarding": null }, "geometry": { "type": "Point", "coordinates": [ 76.872292, 43.229782 ] } },
{ "type": "Feature", "properties": { "stop_id": 223, "stop_code": null, "stop_name": "Ул. Щепеткова", "stop_desc": null, "stop_lat": 43.226388, "stop_lon": 76.874157, "zone_id": null, "stop_url": null, "location_type": null, "parent_station": null, "stop_timezone": null, "wheelchair_boarding": null }, "geometry": { "type": "Point", "coordinates": [ 76.874157, 43.226388 ] } },
{ "type": "Feature", "properties": { "stop_id": 224, "stop_code": null, "stop_name": "Ул. Щепеткова", "stop_desc": null, "stop_lat": 43.225439, "stop_lon": 76.873331, "zone_id": null, "stop_url": null, "location_type": null, "parent_station": null, "stop_timezone": null, "wheelchair_boarding": null }, "geometry": { "type": "Point", "coordinates": [ 76.873331, 43.225439 ] } },
{ "type": "Feature", "properties": { "stop_id": 225, "stop_code": null, "stop_name": "ТЮЗ им. Н. Сац", "stop_desc": null, "stop_lat": 43.221378, "stop_lon": 76.869379, "zone_id": null, "stop_url": null, "location_type": null, "parent_station": null, "stop_timezone": null, "wheelchair_boarding": null }, "geometry": { "type": "Point", "coordinates": [ 76.869379, 43.221378 ] } },
{ "type": "Feature", "properties": { "stop_id": 226, "stop_code": null, "stop_name": "ТЮЗ им. Н. Сац", "stop_desc": null, "stop_lat": 43.221126, "stop_lon": 76.869213, "zone_id": null, "stop_url": null, "location_type": null, "parent_station": null, "stop_timezone": null, "wheelchair_boarding": null }, "geometry": { "type": "Point", "coordinates": [ 76.869213, 43.221126 ] } },
{ "type": "Feature", "properties": { "stop_id": 227, "stop_code": null, "stop_name": "Мкр. №10", "stop_desc": null, "stop_lat": 43.218922, "stop_lon": 76.866228, "zone_id": null, "stop_url": null, "location_type": null, "parent_station": null, "stop_timezone": null, "wheelchair_boarding": null }, "geometry": { "type": "Point", "coordinates": [ 76.866228, 43.218922 ] } },
{ "type": "Feature", "properties": { "stop_id": 228, "stop_code": null, "stop_name": "Ул. Берегового", "stop_desc": null, "stop_lat": 43.217813, "stop_lon": 76.864588, "zone_id": null, "stop_url": null, "location_type": null, "parent_station": null, "stop_timezone": null, "wheelchair_boarding": null }, "geometry": { "type": "Point", "coordinates": [ 76.864588, 43.217813 ] } },
{ "type": "Feature", "properties": { "stop_id": 229, "stop_code": null, "stop_name": "Мкр. №9", "stop_desc": null, "stop_lat": 43.215044, "stop_lon": 76.866398, "zone_id": null, "stop_url": null, "location_type": null, "parent_station": null, "stop_timezone": null, "wheelchair_boarding": null }, "geometry": { "type": "Point", "coordinates": [ 76.866398, 43.215044 ] } },
{ "type": "Feature", "properties": { "stop_id": 230, "stop_code": null, "stop_name": "Берегового/Жандосова", "stop_desc": null, "stop_lat": 43.213378, "stop_lon": 76.868504, "zone_id": null, "stop_url": null, "location_type": null, "parent_station": null, "stop_timezone": null, "wheelchair_boarding": null }, "geometry": { "type": "Point", "coordinates": [ 76.868504, 43.213378 ] } },
{ "type": "Feature", "properties": { "stop_id": 231, "stop_code": null, "stop_name": "Ул. Щепкина", "stop_desc": null, "stop_lat": 43.211542, "stop_lon": 76.869868, "zone_id": null, "stop_url": null, "location_type": null, "parent_station": null, "stop_timezone": null, "wheelchair_boarding": null }, "geometry": { "type": "Point", "coordinates": [ 76.869868, 43.211542 ] } },
{ "type": "Feature", "properties": { "stop_id": 232, "stop_code": null, "stop_name": "Ул. Жандосова", "stop_desc": null, "stop_lat": 43.211386, "stop_lon": 76.870067, "zone_id": null, "stop_url": null, "location_type": null, "parent_station": null, "stop_timezone": null, "wheelchair_boarding": null }, "geometry": { "type": "Point", "coordinates": [ 76.870067, 43.211386 ] } },
{ "type": "Feature", "properties": { "stop_id": 233, "stop_code": null, "stop_name": "Ясли-сад", "stop_desc": null, "stop_lat": 43.209602, "stop_lon": 76.874104, "zone_id": null, "stop_url": null, "location_type": null, "parent_station": null, "stop_timezone": null, "wheelchair_boarding": null }, "geometry": { "type": "Point", "coordinates": [ 76.874104, 43.209602 ] } },
{ "type": "Feature", "properties": { "stop_id": 234, "stop_code": null, "stop_name": "Мкр. Таугуль", "stop_desc": null, "stop_lat": 43.209821, "stop_lon": 76.874679, "zone_id": null, "stop_url": null, "location_type": null, "parent_station": null, "stop_timezone": null, "wheelchair_boarding": null }, "geometry": { "type": "Point", "coordinates": [ 76.874679, 43.209821 ] } },
{ "type": "Feature", "properties": { "stop_id": 236, "stop_code": null, "stop_name": "Ул. Черепанова", "stop_desc": null, "stop_lat": 43.209806, "stop_lon": 76.878341, "zone_id": null, "stop_url": null, "location_type": null, "parent_station": null, "stop_timezone": null, "wheelchair_boarding": null }, "geometry": { "type": "Point", "coordinates": [ 76.878341, 43.209806 ] } },
{ "type": "Feature", "properties": { "stop_id": 238, "stop_code": null, "stop_name": "КазГАСА", "stop_desc": null, "stop_lat": 43.205357, "stop_lon": 76.877927, "zone_id": null, "stop_url": null, "location_type": null, "parent_station": null, "stop_timezone": null, "wheelchair_boarding": null }, "geometry": { "type": "Point", "coordinates": [ 76.877927, 43.205357 ] } },
{ "type": "Feature", "properties": { "stop_id": 239, "stop_code": null, "stop_name": "Колледж им. Демиреля", "stop_desc": null, "stop_lat": 43.201735, "stop_lon": 76.875162, "zone_id": null, "stop_url": null, "location_type": null, "parent_station": null, "stop_timezone": null, "wheelchair_boarding": null }, "geometry": { "type": "Point", "coordinates": [ 76.875162, 43.201735 ] } },
{ "type": "Feature", "properties": { "stop_id": 241, "stop_code": null, "stop_name": "Мкр. Орбита-3", "stop_desc": null, "stop_lat": 43.201764, "stop_lon": 76.879337, "zone_id": null, "stop_url": null, "location_type": null, "parent_station": null, "stop_timezone": null, "wheelchair_boarding": null }, "geometry": { "type": "Point", "coordinates": [ 76.879337, 43.201764 ] } },
{ "type": "Feature", "properties": { "stop_id": 242, "stop_code": null, "stop_name": "Мкр. Орбита-1", "stop_desc": null, "stop_lat": 43.201373, "stop_lon": 76.879728, "zone_id": null, "stop_url": null, "location_type": null, "parent_station": null, "stop_timezone": null, "wheelchair_boarding": null }, "geometry": { "type": "Point", "coordinates": [ 76.879728, 43.201373 ] } },
{ "type": "Feature", "properties": { "stop_id": 243, "stop_code": null, "stop_name": "Мкр. Орбита-2", "stop_desc": null, "stop_lat": 43.196323, "stop_lon": 76.881504, "zone_id": null, "stop_url": null, "location_type": null, "parent_station": null, "stop_timezone": null, "wheelchair_boarding": null }, "geometry": { "type": "Point", "coordinates": [ 76.881504, 43.196323 ] } },
{ "type": "Feature", "properties": { "stop_id": 244, "stop_code": null, "stop_name": "Аль-Фараби/Мустафина", "stop_desc": null, "stop_lat": 43.194935, "stop_lon": 76.880914, "zone_id": null, "stop_url": null, "location_type": null, "parent_station": null, "stop_timezone": null, "wheelchair_boarding": null }, "geometry": { "type": "Point", "coordinates": [ 76.880914, 43.194935 ] } },
{ "type": "Feature", "properties": { "stop_id": 245, "stop_code": null, "stop_name": "Мкр. Орбита-4", "stop_desc": null, "stop_lat": 43.194988, "stop_lon": 76.878761, "zone_id": null, "stop_url": null, "location_type": null, "parent_station": null, "stop_timezone": null, "wheelchair_boarding": null }, "geometry": { "type": "Point", "coordinates": [ 76.878761, 43.194988 ] } },
{ "type": "Feature", "properties": { "stop_id": 246, "stop_code": null, "stop_name": "Мкр. Орбита-3", "stop_desc": null, "stop_lat": 43.19702, "stop_lon": 76.87238, "zone_id": null, "stop_url": null, "location_type": null, "parent_station": null, "stop_timezone": null, "wheelchair_boarding": null }, "geometry": { "type": "Point", "coordinates": [ 76.87238, 43.19702 ] } },
{ "type": "Feature", "properties": { "stop_id": 247, "stop_code": null, "stop_name": "Ул. Саина (мкр. Орбита-3)", "stop_desc": null, "stop_lat": 43.200834, "stop_lon": 76.870372, "zone_id": null, "stop_url": null, "location_type": null, "parent_station": null, "stop_timezone": null, "wheelchair_boarding": null }, "geometry": { "type": "Point", "coordinates": [ 76.870372, 43.200834 ] } },
{ "type": "Feature", "properties": { "stop_id": 248, "stop_code": null, "stop_name": "Сейфуллина/Гоголя", "stop_desc": null, "stop_lat": 43.258452, "stop_lon": 76.932254, "zone_id": null, "stop_url": null, "location_type": null, "parent_station": null, "stop_timezone": null, "wheelchair_boarding": null }, "geometry": { "type": "Point", "coordinates": [ 76.932254, 43.258452 ] } },
{ "type": "Feature", "properties": { "stop_id": 249, "stop_code": null, "stop_name": "Сейфуллина/Толе би", "stop_desc": null, "stop_lat": 43.255031, "stop_lon": 76.932828, "zone_id": null, "stop_url": null, "location_type": null, "parent_station": null, "stop_timezone": null, "wheelchair_boarding": null }, "geometry": { "type": "Point", "coordinates": [ 76.932828, 43.255031 ] } },
{ "type": "Feature", "properties": { "stop_id": 250, "stop_code": null, "stop_name": "Сейфуллина/Толе би", "stop_desc": null, "stop_lat": 43.253443, "stop_lon": 76.932913, "zone_id": null, "stop_url": null, "location_type": null, "parent_station": null, "stop_timezone": null, "wheelchair_boarding": null }, "geometry": { "type": "Point", "coordinates": [ 76.932913, 43.253443 ] } },
{ "type": "Feature", "properties": { "stop_id": 251, "stop_code": null, "stop_name": "Ул. Богенбай батыра", "stop_desc": null, "stop_lat": 43.252767, "stop_lon": 76.933131, "zone_id": null, "stop_url": null, "location_type": null, "parent_station": null, "stop_timezone": null, "wheelchair_boarding": null }, "geometry": { "type": "Point", "coordinates": [ 76.933131, 43.252767 ] } },
{ "type": "Feature", "properties": { "stop_id": 252, "stop_code": null, "stop_name": "Ул. Кабанбай батыра", "stop_desc": null, "stop_lat": 43.250092, "stop_lon": 76.933431, "zone_id": null, "stop_url": null, "location_type": null, "parent_station": null, "stop_timezone": null, "wheelchair_boarding": null }, "geometry": { "type": "Point", "coordinates": [ 76.933431, 43.250092 ] } },
{ "type": "Feature", "properties": { "stop_id": 253, "stop_code": null, "stop_name": "Ул. Кабанбай батыра", "stop_desc": null, "stop_lat": 43.247815, "stop_lon": 76.933579, "zone_id": null, "stop_url": null, "location_type": null, "parent_station": null, "stop_timezone": null, "wheelchair_boarding": null }, "geometry": { "type": "Point", "coordinates": [ 76.933579, 43.247815 ] } },
{ "type": "Feature", "properties": { "stop_id": 254, "stop_code": null, "stop_name": "Ул. Шевченко", "stop_desc": null, "stop_lat": 43.24618, "stop_lon": 76.933892, "zone_id": null, "stop_url": null, "location_type": null, "parent_station": null, "stop_timezone": null, "wheelchair_boarding": null }, "geometry": { "type": "Point", "coordinates": [ 76.933892, 43.24618 ] } },
{ "type": "Feature", "properties": { "stop_id": 255, "stop_code": null, "stop_name": "Ул. Шевченко", "stop_desc": null, "stop_lat": 43.244823, "stop_lon": 76.933941, "zone_id": null, "stop_url": null, "location_type": null, "parent_station": null, "stop_timezone": null, "wheelchair_boarding": null }, "geometry": { "type": "Point", "coordinates": [ 76.933941, 43.244823 ] } },
{ "type": "Feature", "properties": { "stop_id": 256, "stop_code": null, "stop_name": "Сейфуллина/Абая", "stop_desc": null, "stop_lat": 43.242244, "stop_lon": 76.934332, "zone_id": null, "stop_url": null, "location_type": null, "parent_station": null, "stop_timezone": null, "wheelchair_boarding": null }, "geometry": { "type": "Point", "coordinates": [ 76.934332, 43.242244 ] } },
{ "type": "Feature", "properties": { "stop_id": 257, "stop_code": null, "stop_name": "Абая/Сейфуллина", "stop_desc": null, "stop_lat": 43.241518, "stop_lon": 76.932471, "zone_id": null, "stop_url": null, "location_type": null, "parent_station": null, "stop_timezone": null, "wheelchair_boarding": null }, "geometry": { "type": "Point", "coordinates": [ 76.932471, 43.241518 ] } },
{ "type": "Feature", "properties": { "stop_id": 258, "stop_code": null, "stop_name": "Ул. Масанчи", "stop_desc": null, "stop_lat": 43.241201, "stop_lon": 76.931578, "zone_id": null, "stop_url": null, "location_type": null, "parent_station": null, "stop_timezone": null, "wheelchair_boarding": null }, "geometry": { "type": "Point", "coordinates": [ 76.931578, 43.241201 ] } },
{ "type": "Feature", "properties": { "stop_id": 259, "stop_code": null, "stop_name": "Абая/Байтурсынова", "stop_desc": null, "stop_lat": 43.24105, "stop_lon": 76.929439, "zone_id": null, "stop_url": null, "location_type": null, "parent_station": null, "stop_timezone": null, "wheelchair_boarding": null }, "geometry": { "type": "Point", "coordinates": [ 76.929439, 43.24105 ] } },
{ "type": "Feature", "properties": { "stop_id": 260, "stop_code": null, "stop_name": "Абая/Байтурсынова", "stop_desc": null, "stop_lat": 43.24109, "stop_lon": 76.926566, "zone_id": null, "stop_url": null, "location_type": null, "parent_station": null, "stop_timezone": null, "wheelchair_boarding": null }, "geometry": { "type": "Point", "coordinates": [ 76.926566, 43.24109 ] } },
{ "type": "Feature", "properties": { "stop_id": 261, "stop_code": null, "stop_name": "Центр. стадион", "stop_desc": null, "stop_lat": 43.240588, "stop_lon": 76.922795, "zone_id": null, "stop_url": null, "location_type": null, "parent_station": null, "stop_timezone": null, "wheelchair_boarding": null }, "geometry": { "type": "Point", "coordinates": [ 76.922795, 43.240588 ] } },
{ "type": "Feature", "properties": { "stop_id": 262, "stop_code": null, "stop_name": "Центр. стадион", "stop_desc": null, "stop_lat": 43.240753, "stop_lon": 76.921636, "zone_id": null, "stop_url": null, "location_type": null, "parent_station": null, "stop_timezone": null, "wheelchair_boarding": null }, "geometry": { "type": "Point", "coordinates": [ 76.921636, 43.240753 ] } },
{ "type": "Feature", "properties": { "stop_id": 263, "stop_code": null, "stop_name": "Ул. Байзакова", "stop_desc": null, "stop_lat": 43.240003, "stop_lon": 76.913602, "zone_id": null, "stop_url": null, "location_type": null, "parent_station": null, "stop_timezone": null, "wheelchair_boarding": null }, "geometry": { "type": "Point", "coordinates": [ 76.913602, 43.240003 ] } },
{ "type": "Feature", "properties": { "stop_id": 264, "stop_code": null, "stop_name": "Ул. Байзакова", "stop_desc": null, "stop_lat": 43.240207, "stop_lon": 76.910591, "zone_id": null, "stop_url": null, "location_type": null, "parent_station": null, "stop_timezone": null, "wheelchair_boarding": null }, "geometry": { "type": "Point", "coordinates": [ 76.910591, 43.240207 ] } },
{ "type": "Feature", "properties": { "stop_id": 265, "stop_code": null, "stop_name": "Ул. Манаса", "stop_desc": null, "stop_lat": 43.239533, "stop_lon": 76.906632, "zone_id": null, "stop_url": null, "location_type": null, "parent_station": null, "stop_timezone": null, "wheelchair_boarding": null }, "geometry": { "type": "Point", "coordinates": [ 76.906632, 43.239533 ] } },
{ "type": "Feature", "properties": { "stop_id": 266, "stop_code": null, "stop_name": "Ул. Ауэзова", "stop_desc": null, "stop_lat": 43.239698, "stop_lon": 76.903322, "zone_id": null, "stop_url": null, "location_type": null, "parent_station": null, "stop_timezone": null, "wheelchair_boarding": null }, "geometry": { "type": "Point", "coordinates": [ 76.903322, 43.239698 ] } },
{ "type": "Feature", "properties": { "stop_id": 267, "stop_code": null, "stop_name": "Абая/Жарокова", "stop_desc": null, "stop_lat": 43.239033, "stop_lon": 76.899853, "zone_id": null, "stop_url": null, "location_type": null, "parent_station": null, "stop_timezone": null, "wheelchair_boarding": null }, "geometry": { "type": "Point", "coordinates": [ 76.899853, 43.239033 ] } },
{ "type": "Feature", "properties": { "stop_id": 268, "stop_code": null, "stop_name": "Абая/Жарокова", "stop_desc": null, "stop_lat": 43.239319, "stop_lon": 76.897825, "zone_id": null, "stop_url": null, "location_type": null, "parent_station": null, "stop_timezone": null, "wheelchair_boarding": null }, "geometry": { "type": "Point", "coordinates": [ 76.897825, 43.239319 ] } },
{ "type": "Feature", "properties": { "stop_id": 269, "stop_code": null, "stop_name": "Абая/Гагарина", "stop_desc": null, "stop_lat": 43.238748, "stop_lon": 76.895916, "zone_id": null, "stop_url": null, "location_type": null, "parent_station": null, "stop_timezone": null, "wheelchair_boarding": null }, "geometry": { "type": "Point", "coordinates": [ 76.895916, 43.238748 ] } },
{ "type": "Feature", "properties": { "stop_id": 270, "stop_code": null, "stop_name": "Абая/Гагарина", "stop_desc": null, "stop_lat": 43.239065, "stop_lon": 76.893912, "zone_id": null, "stop_url": null, "location_type": null, "parent_station": null, "stop_timezone": null, "wheelchair_boarding": null }, "geometry": { "type": "Point", "coordinates": [ 76.893912, 43.239065 ] } },
{ "type": "Feature", "properties": { "stop_id": 271, "stop_code": null, "stop_name": "Абая/Розыбакиева", "stop_desc": null, "stop_lat": 43.238365, "stop_lon": 76.890658, "zone_id": null, "stop_url": null, "location_type": null, "parent_station": null, "stop_timezone": null, "wheelchair_boarding": null }, "geometry": { "type": "Point", "coordinates": [ 76.890658, 43.238365 ] } },
{ "type": "Feature", "properties": { "stop_id": 272, "stop_code": null, "stop_name": "Абая/Розыбакиева", "stop_desc": null, "stop_lat": 43.238719, "stop_lon": 76.889189, "zone_id": null, "stop_url": null, "location_type": null, "parent_station": null, "stop_timezone": null, "wheelchair_boarding": null }, "geometry": { "type": "Point", "coordinates": [ 76.889189, 43.238719 ] } },
{ "type": "Feature", "properties": { "stop_id": 273, "stop_code": null, "stop_name": "Абая/Тургут Озала", "stop_desc": null, "stop_lat": 43.23799, "stop_lon": 76.88476, "zone_id": null, "stop_url": null, "location_type": null, "parent_station": null, "stop_timezone": null, "wheelchair_boarding": null }, "geometry": { "type": "Point", "coordinates": [ 76.88476, 43.23799 ] } },
{ "type": "Feature", "properties": { "stop_id": 274, "stop_code": null, "stop_name": "Ул. Тургут Озала", "stop_desc": null, "stop_lat": 43.237875, "stop_lon": 76.881712, "zone_id": null, "stop_url": null, "location_type": null, "parent_station": null, "stop_timezone": null, "wheelchair_boarding": null }, "geometry": { "type": "Point", "coordinates": [ 76.881712, 43.237875 ] } },
{ "type": "Feature", "properties": { "stop_id": 276, "stop_code": null, "stop_name": "Ул. Тлендиева", "stop_desc": null, "stop_lat": 43.235657, "stop_lon": 76.87437, "zone_id": null, "stop_url": null, "location_type": null, "parent_station": null, "stop_timezone": null, "wheelchair_boarding": null }, "geometry": { "type": "Point", "coordinates": [ 76.87437, 43.235657 ] } },
{ "type": "Feature", "properties": { "stop_id": 278, "stop_code": null, "stop_name": "Абая/Утеген батыра", "stop_desc": null, "stop_lat": 43.232506, "stop_lon": 76.870235, "zone_id": null, "stop_url": null, "location_type": null, "parent_station": null, "stop_timezone": null, "wheelchair_boarding": null }, "geometry": { "type": "Point", "coordinates": [ 76.870235, 43.232506 ] } },
{ "type": "Feature", "properties": { "stop_id": 280, "stop_code": null, "stop_name": "Абая/Алтынсарина", "stop_desc": null, "stop_lat": 43.227426, "stop_lon": 76.863525, "zone_id": null, "stop_url": null, "location_type": null, "parent_station": null, "stop_timezone": null, "wheelchair_boarding": null }, "geometry": { "type": "Point", "coordinates": [ 76.863525, 43.227426 ] } },
{ "type": "Feature", "properties": { "stop_id": 282, "stop_code": null, "stop_name": "Алтынсарина/Абая", "stop_desc": null, "stop_lat": 43.226197, "stop_lon": 76.863285, "zone_id": null, "stop_url": null, "location_type": null, "parent_station": null, "stop_timezone": null, "wheelchair_boarding": null }, "geometry": { "type": "Point", "coordinates": [ 76.863285, 43.226197 ] } },
{ "type": "Feature", "properties": { "stop_id": 284, "stop_code": null, "stop_name": "Мкр. №8", "stop_desc": null, "stop_lat": 43.223857, "stop_lon": 76.866566, "zone_id": null, "stop_url": null, "location_type": null, "parent_station": null, "stop_timezone": null, "wheelchair_boarding": null }, "geometry": { "type": "Point", "coordinates": [ 76.866566, 43.223857 ] } },
{ "type": "Feature", "properties": { "stop_id": 285, "stop_code": null, "stop_name": "Алтынсарина/Шаляпина", "stop_desc": null, "stop_lat": 43.222841, "stop_lon": 76.868196, "zone_id": null, "stop_url": null, "location_type": null, "parent_station": null, "stop_timezone": null, "wheelchair_boarding": null }, "geometry": { "type": "Point", "coordinates": [ 76.868196, 43.222841 ] } },
{ "type": "Feature", "properties": { "stop_id": 286, "stop_code": null, "stop_name": "Алтынсарина/Шаляпина", "stop_desc": null, "stop_lat": 43.220515, "stop_lon": 76.871266, "zone_id": null, "stop_url": null, "location_type": null, "parent_station": null, "stop_timezone": null, "wheelchair_boarding": null }, "geometry": { "type": "Point", "coordinates": [ 76.871266, 43.220515 ] } },
{ "type": "Feature", "properties": { "stop_id": 287, "stop_code": null, "stop_name": "Мкр. №11", "stop_desc": null, "stop_lat": 43.219826, "stop_lon": 76.872393, "zone_id": null, "stop_url": null, "location_type": null, "parent_station": null, "stop_timezone": null, "wheelchair_boarding": null }, "geometry": { "type": "Point", "coordinates": [ 76.872393, 43.219826 ] } },
{ "type": "Feature", "properties": { "stop_id": 288, "stop_code": null, "stop_name": "Алтынсарина/Жандосова", "stop_desc": null, "stop_lat": 43.218249, "stop_lon": 76.874611, "zone_id": null, "stop_url": null, "location_type": null, "parent_station": null, "stop_timezone": null, "wheelchair_boarding": null }, "geometry": { "type": "Point", "coordinates": [ 76.874611, 43.218249 ] } },
{ "type": "Feature", "properties": { "stop_id": 290, "stop_code": null, "stop_name": "Ул. Пятницкого", "stop_desc": null, "stop_lat": 43.213185, "stop_lon": 76.877845, "zone_id": null, "stop_url": null, "location_type": null, "parent_station": null, "stop_timezone": null, "wheelchair_boarding": null }, "geometry": { "type": "Point", "coordinates": [ 76.877845, 43.213185 ] } },
{ "type": "Feature", "properties": { "stop_id": 291, "stop_code": null, "stop_name": "Мкр. Альмерек", "stop_desc": null, "stop_lat": 43.37472, "stop_lon": 77.004881, "zone_id": null, "stop_url": null, "location_type": null, "parent_station": null, "stop_timezone": null, "wheelchair_boarding": null }, "geometry": { "type": "Point", "coordinates": [ 77.004881, 43.37472 ] } },
{ "type": "Feature", "properties": { "stop_id": 293, "stop_code": null, "stop_name": "Ул. Огарева", "stop_desc": null, "stop_lat": 43.346215, "stop_lon": 77.00685, "zone_id": null, "stop_url": null, "location_type": null, "parent_station": null, "stop_timezone": null, "wheelchair_boarding": null }, "geometry": { "type": "Point", "coordinates": [ 77.00685, 43.346215 ] } },
{ "type": "Feature", "properties": { "stop_id": 294, "stop_code": null, "stop_name": "Ул. Огарева", "stop_desc": null, "stop_lat": 43.346087, "stop_lon": 77.005543, "zone_id": null, "stop_url": null, "location_type": null, "parent_station": null, "stop_timezone": null, "wheelchair_boarding": null }, "geometry": { "type": "Point", "coordinates": [ 77.005543, 43.346087 ] } },
{ "type": "Feature", "properties": { "stop_id": 295, "stop_code": null, "stop_name": "Майлина/Камышинская", "stop_desc": null, "stop_lat": 43.344292, "stop_lon": 77.00096, "zone_id": null, "stop_url": null, "location_type": null, "parent_station": null, "stop_timezone": null, "wheelchair_boarding": null }, "geometry": { "type": "Point", "coordinates": [ 77.00096, 43.344292 ] } },
{ "type": "Feature", "properties": { "stop_id": 296, "stop_code": null, "stop_name": "Майлина/Камышинская", "stop_desc": null, "stop_lat": 43.344261, "stop_lon": 77.000206, "zone_id": null, "stop_url": null, "location_type": null, "parent_station": null, "stop_timezone": null, "wheelchair_boarding": null }, "geometry": { "type": "Point", "coordinates": [ 77.000206, 43.344261 ] } },
{ "type": "Feature", "properties": { "stop_id": 297, "stop_code": null, "stop_name": "Ул. Новокузнецкая", "stop_desc": null, "stop_lat": 43.344229, "stop_lon": 76.993438, "zone_id": null, "stop_url": null, "location_type": null, "parent_station": null, "stop_timezone": null, "wheelchair_boarding": null }, "geometry": { "type": "Point", "coordinates": [ 76.993438, 43.344229 ] } },
{ "type": "Feature", "properties": { "stop_id": 298, "stop_code": null, "stop_name": "Ул. Новокузнецкая", "stop_desc": null, "stop_lat": 43.344137, "stop_lon": 76.992632, "zone_id": null, "stop_url": null, "location_type": null, "parent_station": null, "stop_timezone": null, "wheelchair_boarding": null }, "geometry": { "type": "Point", "coordinates": [ 76.992632, 43.344137 ] } },
{ "type": "Feature", "properties": { "stop_id": 299, "stop_code": null, "stop_name": "Мкр. Алтай", "stop_desc": null, "stop_lat": 43.34324, "stop_lon": 76.989518, "zone_id": null, "stop_url": null, "location_type": null, "parent_station": null, "stop_timezone": null, "wheelchair_boarding": null }, "geometry": { "type": "Point", "coordinates": [ 76.989518, 43.34324 ] } },
{ "type": "Feature", "properties": { "stop_id": 300, "stop_code": null, "stop_name": "Мкр. Алтай", "stop_desc": null, "stop_lat": 43.34335, "stop_lon": 76.988722, "zone_id": null, "stop_url": null, "location_type": null, "parent_station": null, "stop_timezone": null, "wheelchair_boarding": null }, "geometry": { "type": "Point", "coordinates": [ 76.988722, 43.34335 ] } },
{ "type": "Feature", "properties": { "stop_id": 305, "stop_code": null, "stop_name": "Ул. Физули", "stop_desc": null, "stop_lat": 43.331027, "stop_lon": 76.978036, "zone_id": null, "stop_url": null, "location_type": null, "parent_station": null, "stop_timezone": null, "wheelchair_boarding": null }, "geometry": { "type": "Point", "coordinates": [ 76.978036, 43.331027 ] } },
{ "type": "Feature", "properties": { "stop_id": 306, "stop_code": null, "stop_name": "Ул. Физули", "stop_desc": null, "stop_lat": 43.330888, "stop_lon": 76.977558, "zone_id": null, "stop_url": null, "location_type": null, "parent_station": null, "stop_timezone": null, "wheelchair_boarding": null }, "geometry": { "type": "Point", "coordinates": [ 76.977558, 43.330888 ] } },
{ "type": "Feature", "properties": { "stop_id": 307, "stop_code": null, "stop_name": "Ул. Писарева", "stop_desc": null, "stop_lat": 43.326276, "stop_lon": 76.975588, "zone_id": null, "stop_url": null, "location_type": null, "parent_station": null, "stop_timezone": null, "wheelchair_boarding": null }, "geometry": { "type": "Point", "coordinates": [ 76.975588, 43.326276 ] } },
{ "type": "Feature", "properties": { "stop_id": 308, "stop_code": null, "stop_name": "Ул. Писарева", "stop_desc": null, "stop_lat": 43.325919, "stop_lon": 76.975024, "zone_id": null, "stop_url": null, "location_type": null, "parent_station": null, "stop_timezone": null, "wheelchair_boarding": null }, "geometry": { "type": "Point", "coordinates": [ 76.975024, 43.325919 ] } },
{ "type": "Feature", "properties": { "stop_id": 309, "stop_code": null, "stop_name": "Хмельницкого/Гёте", "stop_desc": null, "stop_lat": 43.321704, "stop_lon": 76.96792, "zone_id": null, "stop_url": null, "location_type": null, "parent_station": null, "stop_timezone": null, "wheelchair_boarding": null }, "geometry": { "type": "Point", "coordinates": [ 76.96792, 43.321704 ] } },
{ "type": "Feature", "properties": { "stop_id": 310, "stop_code": null, "stop_name": "Хмельницкого/Гёте", "stop_desc": null, "stop_lat": 43.321908, "stop_lon": 76.966467, "zone_id": null, "stop_url": null, "location_type": null, "parent_station": null, "stop_timezone": null, "wheelchair_boarding": null }, "geometry": { "type": "Point", "coordinates": [ 76.966467, 43.321908 ] } },
{ "type": "Feature", "properties": { "stop_id": 311, "stop_code": null, "stop_name": "Пож. часть №11", "stop_desc": null, "stop_lat": 43.321673, "stop_lon": 76.959855, "zone_id": null, "stop_url": null, "location_type": null, "parent_station": null, "stop_timezone": null, "wheelchair_boarding": null }, "geometry": { "type": "Point", "coordinates": [ 76.959855, 43.321673 ] } },