{
"type": "FeatureCollection",
"name": "tpu230123",
"crs": { "type": "name", "properties": { "name": "urn:ogc:def:crs:OGC:1.3:CRS84" } },
"features": [
{ "type": "Feature", "properties": { "fid": 1, "coordinates": "37.4013934872331, 55.80422223674342", "NameOfStation": "Строгино (2025)", "railway": "", "line": "Арбатско-Покровская линия,Рублево-Архангельская", "lineNumber": "e,k", "level": 0, "ids": "478,479", "day": "33.3", "hour": "3.8" }, "geometry": { "type": "Point", "coordinates": [ 37.401393487233101, 55.804222236743421 ] } },
{ "type": "Feature", "properties": { "fid": 2, "coordinates": "37.4624799656576, 55.80983285451713", "NameOfStation": "Щукинская", "railway": "", "line": "Таганско-Краснопресненская линия,D2,", "lineNumber": "u,z", "level": 0, "ids": "480,481", "day": "52.8", "hour": "6.8" }, "geometry": { "type": "Point", "coordinates": [ 37.4624799656576, 55.809832854517133 ] } },
{ "type": "Feature", "properties": { "fid": 3, "coordinates": "37.4872652990214, 55.81444246596001", "NameOfStation": "Стрешнево", "railway": "", "line": "МЦК,D2,", "lineNumber": "f,z", "level": 0, "ids": "482,483", "day": "31.8", "hour": "5" }, "geometry": { "type": "Point", "coordinates": [ 37.487265299021402, 55.814442465960013 ] } },
{ "type": "Feature", "properties": { "fid": 4, "coordinates": "37.437491273250544, 55.82740636476669", "NameOfStation": "Тушинская", "railway": "", "line": "Таганско-Краснопресненская линия,D2,", "lineNumber": "u,z", "level": 0, "ids": "484,485", "day": "61.4", "hour": "8.1" }, "geometry": { "type": "Point", "coordinates": [ 37.437491273250544, 55.827406364766688 ] } },
{ "type": "Feature", "properties": { "fid": 5, "coordinates": "37.383738761705054, 55.83394621279351", "NameOfStation": "Волоколамская", "railway": "", "line": "Арбатско-Покровская линия,D2,", "lineNumber": "e,z", "level": 0, "ids": "486,487", "day": "29.8", "hour": "4.5" }, "geometry": { "type": "Point", "coordinates": [ 37.383738761705054, 55.833946212793514 ] } },
{ "type": "Feature", "properties": { "fid": 6, "coordinates": "37.46721797506449, 55.560699719821145", "NameOfStation": "Коммунарка (2024)", "railway": "construction", "line": "Троицкая,Сокольническая линия", "lineNumber": "h,q", "level": 0, "ids": "488,489", "day": "16.4", "hour": "3.6" }, "geometry": { "type": "Point", "coordinates": [ 37.467217975064493, 55.560699719821145 ] } },
{ "type": "Feature", "properties": { "fid": 7, "coordinates": "37.52102822475698, 55.67091466808948", "NameOfStation": "Новаторская (2024)", "railway": "construction,construction", "line": "БКЛ,Троицкая", "lineNumber": "a,h", "level": 0, "ids": "490,491", "day": "12.6", "hour": "1.5" }, "geometry": { "type": "Point", "coordinates": [ 37.521028224756982, 55.67091466808948 ] } },
{ "type": "Feature", "properties": { "fid": 8, "coordinates": "37.574500045206136, 55.68748379096428", "NameOfStation": "Академическая (2024)", "railway": "construction", "line": "Троицкая,Калужско-Рижская линия", "lineNumber": "h,y", "level": 0, "ids": "492,493", "day": "38.8", "hour": "4" }, "geometry": { "type": "Point", "coordinates": [ 37.574500045206136, 55.687483790964279 ] } },
{ "type": "Feature", "properties": { "fid": 9, "coordinates": "37.60624296196255, 55.68991990058612", "NameOfStation": "Крымская (2024)", "railway": "construction", "line": "МЦК,Троицкая", "lineNumber": "f,h", "level": 0, "ids": "594,495", "day": "15.8", "hour": "2.1" }, "geometry": { "type": "Point", "coordinates": [ 37.60624296196255, 55.689919900586119 ] } },
{ "type": "Feature", "properties": { "fid": 10, "coordinates": "37.61781865711836, 55.68996934552317", "NameOfStation": "Верхние Котлы", "railway": "", "line": "МЦК,D5,", "lineNumber": "f,v", "level": 0, "ids": "497,496", "day": "23.8", "hour": "3.5" }, "geometry": { "type": "Point", "coordinates": [ 37.617818657118363, 55.689969345523167 ] } },
{ "type": "Feature", "properties": { "fid": 11, "coordinates": "37.64725253867058, 55.69766881990189", "NameOfStation": "ЗИЛ (2024)", "railway": "", "line": "МЦК,Троицкая,Бирюлёвская", "lineNumber": "f,h,j", "level": 0, "ids": "499,498,721", "day": "10", "hour": "1.7" }, "geometry": { "type": "Point", "coordinates": [ 37.647252538670578, 55.697668819901892 ] } },
{ "type": "Feature", "properties": { "fid": 12, "coordinates": "37.65840691570011, 55.706247307122226", "NameOfStation": "Автозаводская", "railway": "", "line": "Замоскворецкая линия,МЦК", "lineNumber": "w,f", "level": 0, "ids": "500,501", "day": "61.5", "hour": "8.8" }, "geometry": { "type": "Point", "coordinates": [ 37.658406915700112, 55.706247307122226 ] } },
{ "type": "Feature", "properties": { "fid": 13, "coordinates": "37.665452904356194, 55.69331787956917", "NameOfStation": "Технопарк", "railway": "", "line": "Бирюлёвская,Замоскворецкая линия", "lineNumber": "j,w", "level": 0, "ids": "503,502", "day": "20.9", "hour": "5.3" }, "geometry": { "type": "Point", "coordinates": [ 37.665452904356194, 55.693317879569172 ] } },
{ "type": "Feature", "properties": { "fid": 14, "coordinates": "37.6221508095922, 55.68215203681771", "NameOfStation": "Нагатинская", "railway": "", "line": "Серпуховско-Тимирязевская линия,D5,", "lineNumber": "o,v", "level": 0, "ids": "504,505", "day": "48.3", "hour": "6.2" }, "geometry": { "type": "Point", "coordinates": [ 37.622150809592199, 55.682152036817712 ] } },
{ "type": "Feature", "properties": { "fid": 15, "coordinates": "37.506083781843444, 55.677253243292", "NameOfStation": "Проспект Вернадского", "railway": "", "line": "БКЛ,Сокольническая линия", "lineNumber": "a,q", "level": 0, "ids": "506,507", "day": "35.7", "hour": "4.2" }, "geometry": { "type": "Point", "coordinates": [ 37.506083781843444, 55.677253243292 ] } },
{ "type": "Feature", "properties": { "fid": 16, "coordinates": "37.56179484736209, 55.72225290563332", "NameOfStation": "Лужники", "railway": "", "line": "МЦК,Сокольническая линия", "lineNumber": "f,q", "level": 0, "ids": "508,509", "day": "22.4", "hour": "3" }, "geometry": { "type": "Point", "coordinates": [ 37.561794847362087, 55.722252905633319 ] } },
{ "type": "Feature", "properties": { "fid": 17, "coordinates": "37.594030232791084, 55.73559300011288", "NameOfStation": "Парк Культуры", "railway": "", "line": "Кольцевая линия,Сокольническая линия", "lineNumber": "t,q", "level": 0, "ids": "510,511", "day": "49", "hour": "7.4" }, "geometry": { "type": "Point", "coordinates": [ 37.594030232791084, 55.735593000112878 ] } },
{ "type": "Feature", "properties": { "fid": 18, "coordinates": "37.602744785807324, 55.744436225214486", "NameOfStation": "Кропоткинская", "railway": "", "line": "Сокольническая линия", "lineNumber": "q", "level": 0, "ids": "512,547", "day": "26.2", "hour": "4.3" }, "geometry": { "type": "Point", "coordinates": [ 37.602744785807324, 55.744436225214486 ] } },
{ "type": "Feature", "properties": { "fid": 19, "coordinates": "37.60996979993499, 55.75223627085859", "NameOfStation": "Александровский сад", "railway": "", "line": "Арбатско-Покровская линия,Сокольническая линия,Филёвская линия,Серпуховско-Тимирязевская линия", "lineNumber": "e,q,r,o", "level": 0, "ids": "515,516,517", "day": "24.9", "hour": "4.5" }, "geometry": { "type": "Point", "coordinates": [ 37.609969799934987, 55.752236270858589 ] } },
{ "type": "Feature", "properties": { "fid": 20, "coordinates": "37.6184380647384, 55.757703723882344", "NameOfStation": "Охотный Ряд", "railway": "", "line": "Сокольническая линия,Замоскворецкая линия,Арбатско-Покровская линия", "lineNumber": "q,w,e", "level": 0, "ids": "518,519,520", "day": "76.3", "hour": "11.5" }, "geometry": { "type": "Point", "coordinates": [ 37.618438064738399, 55.757703723882344 ] } },
{ "type": "Feature", "properties": { "fid": 21, "coordinates": "37.6281583259117, 55.7599094389503", "NameOfStation": "Лубянка", "railway": "", "line": "Сокольническая линия,Таганско-Краснопресненская линия", "lineNumber": "q,u", "level": 0, "ids": "521,522", "day": "49.8", "hour": "7.9" }, "geometry": { "type": "Point", "coordinates": [ 37.628158325911699, 55.759909438950302 ] } },
{ "type": "Feature", "properties": { "fid": 22, "coordinates": "37.633414935985826, 55.75548348538254", "NameOfStation": "Китай-город", "railway": "", "line": "Калужско-Рижская линия,Таганско-Краснопресненская линия", "lineNumber": "y,u", "level": 0, "ids": "523,524", "day": "62.1", "hour": "10.2" }, "geometry": { "type": "Point", "coordinates": [ 37.633414935985826, 55.755483485382541 ] } },
{ "type": "Feature", "properties": { "fid": 23, "coordinates": "37.63780093994089, 55.765559536323934", "NameOfStation": "Чистые Пруды", "railway": "", "line": "Сокольническая линия,Калужско-Рижская линия,Люблинско-Дмитровская линия", "lineNumber": "q,y,p", "level": 0, "ids": "525,526,527", "day": "52.7", "hour": "9.3" }, "geometry": { "type": "Point", "coordinates": [ 37.637800939940888, 55.765559536323934 ] } },
{ "type": "Feature", "properties": { "fid": 24, "coordinates": "37.65993720909671, 55.75821437086336", "NameOfStation": "Курская", "railway": "", "line": "Люблинско-Дмитровская линия,Кольцевая линия,Арбатско-Покровская линия,D2,D4,", "lineNumber": "p,t,e,z,c", "level": 0, "ids": "528,529,530,531,715", "day": "122.1", "hour": "16.1" }, "geometry": { "type": "Point", "coordinates": [ 37.659937209096711, 55.758214370863357 ] } },
{ "type": "Feature", "properties": { "fid": 25, "coordinates": "37.655996379394026, 55.77523434374305", "NameOfStation": "Комсомольская", "railway": "", "line": "Сокольническая линия,Кольцевая линия", "lineNumber": "q,t,z,c,v", "level": 0, "ids": "533,532,534,535,716", "day": "144.2", "hour": "27.1" }, "geometry": { "type": "Point", "coordinates": [ 37.655996379394026, 55.775234343743051 ] } },
{ "type": "Feature", "properties": { "fid": 26, "coordinates": "37.680470702029815, 55.78937550797055", "NameOfStation": "Сокольники (2023)", "railway": "", "line": "Сокольническая линия,БКЛ", "lineNumber": "q,a", "level": 0, "ids": "536,537", "day": "30", "hour": "3.6" }, "geometry": { "type": "Point", "coordinates": [ 37.680470702029815, 55.789375507970547 ] } },
{ "type": "Feature", "properties": { "fid": 27, "coordinates": "37.703963332005635, 55.78143060901299", "NameOfStation": "Электрозаводская", "railway": "", "line": "БКЛ,Арбатско-Покровская линия,D3,", "lineNumber": "a,e,x", "level": 0, "ids": "538,539,540", "day": "82.6", "hour": "10.8" }, "geometry": { "type": "Point", "coordinates": [ 37.703963332005635, 55.781430609012993 ] } },
{ "type": "Feature", "properties": { "fid": 28, "coordinates": "37.745872153307026, 55.803501036999016", "NameOfStation": "Черкизовская", "railway": "", "line": "Сокольническая линия,МЦК", "lineNumber": "q,f", "level": 0, "ids": "541,542", "day": "43.8", "hour": "6.2" }, "geometry": { "type": "Point", "coordinates": [ 37.745872153307026, 55.803501036999016 ] } },
{ "type": "Feature", "properties": { "fid": 29, "coordinates": "37.73696018323218, 55.81548230732455", "NameOfStation": "Бульвар Рокоссовского", "railway": "", "line": "Сокольническая линия,МЦК", "lineNumber": "q,f", "level": 0, "ids": "543,544", "day": "38", "hour": "5.7" }, "geometry": { "type": "Point", "coordinates": [ 37.736960183232178, 55.815482307324551 ] } },
{ "type": "Feature", "properties": { "fid": 30, "coordinates": "37.74797730010178, 55.78843216115209", "NameOfStation": "Партизанская", "railway": "", "line": "Арбатско-Покровская линия,МЦК", "lineNumber": "e,f", "level": 0, "ids": "545,546", "day": "41.5", "hour": "4" }, "geometry": { "type": "Point", "coordinates": [ 37.74797730010178, 55.788432161152087 ] } },
{ "type": "Feature", "properties": { "fid": 31, "coordinates": "37.583668653180524, 55.74796605428952", "NameOfStation": "Смоленская", "railway": "", "line": "", "lineNumber": "e,r", "level": 0, "ids": "548,549", "day": "38.6", "hour": "6" }, "geometry": { "type": "Point", "coordinates": [ 37.583668653180524, 55.74796605428952 ] } },
{ "type": "Feature", "properties": { "fid": 32, "coordinates": "37.56486891298919, 55.743602777248206", "NameOfStation": "Киевская", "railway": "", "line": "Кольцевая линия,Арбатско-Покровская линия,Филёвская линия", "lineNumber": "t,e,r,", "level": 0, "ids": "550,551,552", "day": "85.1", "hour": "10.7" }, "geometry": { "type": "Point", "coordinates": [ 37.564868912989191, 55.743602777248206 ] } },
{ "type": "Feature", "properties": { "fid": 33, "coordinates": "37.53401544697053, 55.740078372122056", "NameOfStation": "Кутузовская (2023)", "railway": "", "line": "Филёвская линия,МЦК,D4,", "lineNumber": "r,f,c", "level": 0, "ids": "555,554,553", "day": "37.1", "hour": "7.9" }, "geometry": { "type": "Point", "coordinates": [ 37.534015446970528, 55.740078372122056 ] } },
{ "type": "Feature", "properties": { "fid": 34, "coordinates": "37.517093984803076, 55.73664888872604", "NameOfStation": "Парк Победы", "railway": "", "line": "Калининская линия,Арбатско-Покровская линия", "lineNumber": "i,e,c", "level": 0, "ids": "556,557", "day": "22.7", "hour": "4.1" }, "geometry": { "type": "Point", "coordinates": [ 37.517093984803076, 55.736648888726037 ] } },
{ "type": "Feature", "properties": { "fid": 35, "coordinates": "37.471744466194295, 55.72997960291118", "NameOfStation": "Славянский Бульвар", "railway": "", "line": "Арбатско-Покровская линия,D1,", "lineNumber": "e,l", "level": 0, "ids": "558,559", "day": "79.4", "hour": "11.1" }, "geometry": { "type": "Point", "coordinates": [ 37.471744466194295, 55.729979602911179 ] } },
{ "type": "Feature", "properties": { "fid": 36, "coordinates": "37.44648748788694, 55.72875830134751", "NameOfStation": "Кунцевская", "railway": "", "line": "Филёвская линия,Арбатско-Покровская линия,БКЛ,D1,", "lineNumber": "r,e,a,l", "level": 0, "ids": "560,561,562,563", "day": "37.8", "hour": "4.9" }, "geometry": { "type": "Point", "coordinates": [ 37.446487487886941, 55.728758301347511 ] } },
{ "type": "Feature", "properties": { "fid": 37, "coordinates": "37.74532551541634, 55.61357426351688", "NameOfStation": "Зябликово", "railway": "", "line": "Люблинско-Дмитровская линия,Замоскворецкая линия", "lineNumber": "p,w", "level": 0, "ids": "565,564", "day": "31.4", "hour": "5.9" }, "geometry": { "type": "Point", "coordinates": [ 37.74532551541634, 55.613574263516881 ] } },
{ "type": "Feature", "properties": { "fid": 38, "coordinates": "37.67111383831153, 55.619919310750305", "NameOfStation": "Царицыно", "railway": "", "line": "Замоскворецкая линия,D2,", "lineNumber": "w,z", "level": 0, "ids": "566,567", "day": "70.3", "hour": "12.5" }, "geometry": { "type": "Point", "coordinates": [ 37.671113838311527, 55.619919310750305 ] } },
{ "type": "Feature", "properties": { "fid": 39, "coordinates": "37.649024984835314, 55.6551102249802", "NameOfStation": "Каширская", "railway": "", "line": "Замоскворецкая линия,БКЛ", "lineNumber": "w,a", "level": 0, "ids": "568,569", "day": "32.3", "hour": "3.8" }, "geometry": { "type": "Point", "coordinates": [ 37.649024984835314, 55.655110224980199 ] } },
{ "type": "Feature", "properties": { "fid": 40, "coordinates": "37.636892337365, 55.73122371388169", "NameOfStation": "Павелецкая", "railway": "", "line": "Кольцевая линия,Замоскворецкая линия,D5,", "lineNumber": "t,w,v", "level": 0, "ids": "570,571,572", "day": "89.3", "hour": "14.5" }, "geometry": { "type": "Point", "coordinates": [ 37.636892337364998, 55.73122371388169 ] } },
{ "type": "Feature", "properties": { "fid": 41, "coordinates": "37.62883203998216, 55.74163422697841", "NameOfStation": "Третьяковская", "railway": "", "line": "Калининская линия,Замоскворецкая линия,Калужско-Рижская линия", "lineNumber": "i,w,y", "level": 0, "ids": "574,573,575", "day": "66.4", "hour": "11.8" }, "geometry": { "type": "Point", "coordinates": [ 37.628832039982157, 55.741634226978412 ] } },
{ "type": "Feature", "properties": { "fid": 42, "coordinates": "37.60561323514514, 55.76528069425271", "NameOfStation": "Тверская", "railway": "", "line": "Замоскворецкая линия,Серпуховско-Тимирязевская линия,Таганско-Краснопресненская линия", "lineNumber": "w,o,u", "level": 0, "ids": "576,578,577", "day": "70.8", "hour": "11.2" }, "geometry": { "type": "Point", "coordinates": [ 37.605613235145142, 55.765280694252709 ] } },
{ "type": "Feature", "properties": { "fid": 43, "coordinates": "37.583586285832496, 55.77611512054901", "NameOfStation": "Белорусская", "railway": "", "line": "Замоскворецкая линия,Кольцевая линия,D1,D4,", "lineNumber": "w,t,l,c", "level": 0, "ids": "579,580,581,718", "day": "89.5", "hour": "13.2" }, "geometry": { "type": "Point", "coordinates": [ 37.583586285832496, 55.776115120549008 ] } },
{ "type": "Feature", "properties": { "fid": 44, "coordinates": "37.55697223064437, 55.790596426942216", "NameOfStation": "Динамо", "railway": "", "line": "Замоскворецкая линия,БКЛ", "lineNumber": "w,a", "level": 0, "ids": "582,583", "day": "48.2", "hour": "7.5" }, "geometry": { "type": "Point", "coordinates": [ 37.556972230644369, 55.790596426942216 ] } },
{ "type": "Feature", "properties": { "fid": 45, "coordinates": "37.483025440972604, 55.879225287865005", "NameOfStation": "Ховрино", "railway": "", "line": "D3,,D3,", "lineNumber": "w,x", "level": 0, "ids": "584,585", "day": "50", "hour": "8.7" }, "geometry": { "type": "Point", "coordinates": [ 37.483025440972604, 55.879225287865005 ] } },
{ "type": "Feature", "properties": { "fid": 46, "coordinates": "37.61585891898711, 55.780970686538815", "NameOfStation": "Суворовская (2025)", "railway": "construction-perspective", "line": "Кольцевая линия,Люблинско-Дмитровская линия", "lineNumber": "t,p", "level": 0, "ids": "586,587", "day": "14.9", "hour": "2.4" }, "geometry": { "type": "Point", "coordinates": [ 37.615858918987108, 55.780970686538815 ] } },
{ "type": "Feature", "properties": { "fid": 47, "coordinates": "37.63269761806845, 55.779786011279185", "NameOfStation": "Проспект Мира", "railway": "", "line": "Калужско-Рижская линия,Кольцевая линия", "lineNumber": "y,t", "level": 0, "ids": "588,589", "day": "54.7", "hour": "8" }, "geometry": { "type": "Point", "coordinates": [ 37.632697618068448, 55.779786011279185 ] } },
{ "type": "Feature", "properties": { "fid": 48, "coordinates": "37.60098856915195, 55.7798825153709", "NameOfStation": "Новослободская", "railway": "", "line": "Кольцевая линия,Серпуховско-Тимирязевская линия", "lineNumber": "t,o", "level": 0, "ids": "590,591", "day": "62.1", "hour": "9.8" }, "geometry": { "type": "Point", "coordinates": [ 37.600988569151951, 55.7798825153709 ] } },
{ "type": "Feature", "properties": { "fid": 49, "coordinates": "37.65236676938841, 55.741589399248284", "NameOfStation": "Таганская", "railway": "", "line": "Кольцевая линия,Калининская линия,Таганско-Краснопресненская линия", "lineNumber": "t,i,u", "level": 0, "ids": "592,593,594", "day": "73", "hour": "10.5" }, "geometry": { "type": "Point", "coordinates": [ 37.652366769388408, 55.741589399248284 ] } },
{ "type": "Feature", "properties": { "fid": 50, "coordinates": "37.62415581243587, 55.7290297257166", "NameOfStation": "Серпуховская", "railway": "", "line": "Кольцевая линия,Серпуховско-Тимирязевская линия", "lineNumber": "t,o", "level": 0, "ids": "595,596", "day": "51.8", "hour": "9.4" }, "geometry": { "type": "Point", "coordinates": [ 37.624155812435873, 55.7290297257166 ] } },
{ "type": "Feature", "properties": { "fid": 51, "coordinates": "37.61058614679493, 55.72967759027347", "NameOfStation": "Октябрьская", "railway": "", "line": "Кольцевая линия,Калужско-Рижская линия", "lineNumber": "t,y", "level": 0, "ids": "597,598", "day": "43.1", "hour": "7" }, "geometry": { "type": "Point", "coordinates": [ 37.61058614679493, 55.729677590273468 ] } },
{ "type": "Feature", "properties": { "fid": 52, "coordinates": "37.57726546415739, 55.760836984675024", "NameOfStation": "Краснопресненская", "railway": "", "line": "Таганско-Краснопресненская линия,Кольцевая линия", "lineNumber": "u,t", "level": 0, "ids": "599,600", "day": "50.7", "hour": "8.7" }, "geometry": { "type": "Point", "coordinates": [ 37.577265464157392, 55.760836984675024 ] } },
{ "type": "Feature", "properties": { "fid": 53, "coordinates": "37.52152176740355, 55.777417916280996", "NameOfStation": "Хорошевская", "railway": "", "line": "БКЛ,Таганско-Краснопресненская линия", "lineNumber": "a,u", "level": 0, "ids": "601,602", "day": "45.3", "hour": "6.3" }, "geometry": { "type": "Point", "coordinates": [ 37.521521767403549, 55.777417916280996 ] } },
{ "type": "Feature", "properties": { "fid": 54, "coordinates": "37.54893453611482, 55.77345237356332", "NameOfStation": "Беговая", "railway": "", "line": "Таганско-Краснопресненская линия,D1,D4,", "lineNumber": "u,l,c", "level": 0, "ids": "603,604,719", "day": "59.7", "hour": "9" }, "geometry": { "type": "Point", "coordinates": [ 37.548934536114821, 55.773452373563323 ] } },
{ "type": "Feature", "properties": { "fid": 55, "coordinates": "37.666933532295864, 55.732250461726686", "NameOfStation": "Пролетарская", "railway": "", "line": "Таганско-Краснопресненская линия,Люблинско-Дмитровская линия", "lineNumber": "u,p", "level": 0, "ids": "605,606", "day": "45.2", "hour": "7" }, "geometry": { "type": "Point", "coordinates": [ 37.666933532295864, 55.732250461726686 ] } },
{ "type": "Feature", "properties": { "fid": 56, "coordinates": "37.73027620567603, 55.7084554104027", "NameOfStation": "Текстильщики (2023)", "railway": "construction", "line": "БКЛ,Таганско-Краснопресненская линия,D2,", "lineNumber": "a,u,z", "level": 0, "ids": "607,609,608", "day": "76.3", "hour": "8.6" }, "geometry": { "type": "Point", "coordinates": [ 37.730276205676027, 55.708455410402699 ] } },
{ "type": "Feature", "properties": { "fid": 57, "coordinates": "37.81742173583841, 55.71585918225011", "NameOfStation": "Выхино", "railway": "", "line": "Таганско-Краснопресненская линия,D3,", "lineNumber": "u,x", "level": 0, "ids": "610,611", "day": "70.3", "hour": "11.7" }, "geometry": { "type": "Point", "coordinates": [ 37.817421735838408, 55.715859182250107 ] } },
{ "type": "Feature", "properties": { "fid": 58, "coordinates": "37.85024937244326, 55.70394253964126", "NameOfStation": "Лермонтовский проспект", "railway": "", "line": "Таганско-Краснопресненская линия,Некрасовская линия,D3,", "lineNumber": "u,g,x", "level": 0, "ids": "612,613,614", "day": "27.1", "hour": "3.8" }, "geometry": { "type": "Point", "coordinates": [ 37.850249372443258, 55.703942539641261 ] } },
{ "type": "Feature", "properties": { "fid": 59, "coordinates": "37.5769677584389, 55.56952672530887", "NameOfStation": "Бульвар Дмитрия Донского", "railway": "", "line": "Серпуховско-Тимирязевская линия,Бутовская линия", "lineNumber": "s,o", "level": 0, "ids": "615,616", "day": "61", "hour": "10.9" }, "geometry": { "type": "Point", "coordinates": [ 37.576967758438897, 55.569526725308869 ] } },
{ "type": "Feature", "properties": { "fid": 60, "coordinates": "37.59862446386977, 55.65274005057934", "NameOfStation": "Каховская", "railway": "", "line": "БКЛ,Серпуховско-Тимирязевская линия", "lineNumber": "a,o", "level": 0, "ids": "617,618", "day": "18.9", "hour": "2.5" }, "geometry": { "type": "Point", "coordinates": [ 37.598624463869768, 55.652740050579339 ] } },
{ "type": "Feature", "properties": { "fid": 61, "coordinates": "37.5881923283433, 55.793593056967346", "NameOfStation": "Савеловская", "railway": "", "line": "Серпуховско-Тимирязевская линия,БКЛ,D4,,D1,", "lineNumber": "o,a,c,l", "level": 0, "ids": "621,619,620,622", "day": "75.7", "hour": "10.1" }, "geometry": { "type": "Point", "coordinates": [ 37.588192328343297, 55.793593056967346 ] } },
{ "type": "Feature", "properties": { "fid": 62, "coordinates": "37.581179220574654, 55.808460581759846", "NameOfStation": "Дмитровская", "railway": "", "line": "Серпуховско-Тимирязевская линия,D2,,D1,", "lineNumber": "o,z,l", "level": 0, "ids": "624,623,625", "day": "50.5", "hour": "7.8" }, "geometry": { "type": "Point", "coordinates": [ 37.581179220574654, 55.808460581759846 ] } },
{ "type": "Feature", "properties": { "fid": 63, "coordinates": "37.576403709699974, 55.81892071362778", "NameOfStation": "Тимирязевская", "railway": "", "line": "Серпуховско-Тимирязевская линия,Монорельс,D1,", "lineNumber": "o,l", "level": 0, "ids": "627,626", "day": "27.2", "hour": "3.7" }, "geometry": { "type": "Point", "coordinates": [ 37.576403709699974, 55.818920713627783 ] } },
{ "type": "Feature", "properties": { "fid": 64, "coordinates": "37.57519202850543, 55.83556697132366", "NameOfStation": "Петровско-Разумовская (2023)", "railway": "", "line": "Серпуховско-Тимирязевская линия,D1,,D3,", "lineNumber": "o,p,l,x", "level": 0, "ids": "630,629,628,705", "day": "23.8", "hour": "3.3" }, "geometry": { "type": "Point", "coordinates": [ 37.575192028505427, 55.835566971323658 ] } },
{ "type": "Feature", "properties": { "fid": 65, "coordinates": "37.59070234523147, 55.84747771501319", "NameOfStation": "Владыкино", "railway": "", "line": "МЦК,Серпуховско-Тимирязевская линия", "lineNumber": "f,o", "level": 0, "ids": "631,632", "day": "65", "hour": "8.3" }, "geometry": { "type": "Point", "coordinates": [ 37.59070234523147, 55.847477715013191 ] } },
{ "type": "Feature", "properties": { "fid": 66, "coordinates": "37.54572090947616, 55.899299137765894", "NameOfStation": "Лианозово (2023)", "railway": "construction", "line": "Люблинско-Дмитровская линия,D1,", "lineNumber": "p,l", "level": 0, "ids": "633,634", "day": "2.5", "hour": "0.3" }, "geometry": { "type": "Point", "coordinates": [ 37.545720909476159, 55.899299137765894 ] } },
{ "type": "Feature", "properties": { "fid": 67, "coordinates": "37.57475435626648, 55.84640812667766", "NameOfStation": "Окружная", "railway": "", "line": "Люблинско-Дмитровская линия,D1,", "lineNumber": "p,f,l", "level": 0, "ids": "635,636,706", "day": "35.8", "hour": "5.6" }, "geometry": { "type": "Point", "coordinates": [ 37.574754356266482, 55.846408126677659 ] } },
{ "type": "Feature", "properties": { "fid": 68, "coordinates": "37.61630509931956, 55.79667098652999", "NameOfStation": "Марьина Роща (2023)", "railway": "construction", "line": "БКЛ,Люблинско-Дмитровская линия,D2,D4", "lineNumber": "a,p,z,c", "level": 0, "ids": "637,638", "day": "32.6", "hour": "4.5" }, "geometry": { "type": "Point", "coordinates": [ 37.616305099319561, 55.796670986529989 ] } },
{ "type": "Feature", "properties": { "fid": 69, "coordinates": "37.62092901201402, 55.768282686155004", "NameOfStation": "Трубная", "railway": "", "line": "Люблинско-Дмитровская линия,Серпуховско-Тимирязевская линия", "lineNumber": "p,o", "level": 0, "ids": "641,640", "day": "43.5", "hour": "7.8" }, "geometry": { "type": "Point", "coordinates": [ 37.618067073745884, 55.770222844071235 ] } },
{ "type": "Feature", "properties": { "fid": 70, "coordinates": "37.684122917614275, 55.74704748644613", "NameOfStation": "Площадь Ильича", "railway": "", "line": "Люблинско-Дмитровская линия,Калининская линия,D2,D4,", "lineNumber": "p,i,z,c", "level": 0, "ids": "642,643,644,714", "day": "43.6", "hour": "5.7" }, "geometry": { "type": "Point", "coordinates": [ 37.684122917614275, 55.747047486446128 ] } },
{ "type": "Feature", "properties": { "fid": 71, "coordinates": "37.73009288983585, 55.69316684257336", "NameOfStation": "Печатники (2023)", "railway": "construction", "line": "БКЛ,Люблинско-Дмитровская линия,D2,", "lineNumber": "a,p,z", "level": 0, "ids": "645,646,647", "day": "22.8", "hour": "3.7" }, "geometry": { "type": "Point", "coordinates": [ 37.730092889835852, 55.693166842573362 ] } },
{ "type": "Feature", "properties": { "fid": 72, "coordinates": "37.58642967603417, 55.70766096445977", "NameOfStation": "Ленинский Проспект", "railway": "", "line": "Калужско-Рижская линия,МЦК", "lineNumber": "y,f", "level": 0, "ids": "649,648", "day": "110.1", "hour": "15.7" }, "geometry": { "type": "Point", "coordinates": [ 37.586429676034172, 55.70766096445977 ] } },
{ "type": "Feature", "properties": { "fid": 73, "coordinates": "37.716372868745, 55.7244010444621", "NameOfStation": "Новохохловская", "railway": "", "line": "МЦК,D2,", "lineNumber": "f,z", "level": 0, "ids": "650,651", "day": "14", "hour": "2.1" }, "geometry": { "type": "Point", "coordinates": [ 37.716372868744998, 55.724401044462098 ] } },
{ "type": "Feature", "properties": { "fid": 74, "coordinates": "37.72902119723191, 55.73217899862679", "NameOfStation": "Нижегородская", "railway": "", "line": "МЦК,Некрасовская линия,БКЛ,D4,", "lineNumber": "f,g,a,c", "level": 0, "ids": "652,653,654,655", "day": "81.5", "hour": "14.9" }, "geometry": { "type": "Point", "coordinates": [ 37.729021197231909, 55.732178998626793 ] } },
{ "type": "Feature", "properties": { "fid": 75, "coordinates": "37.71926315404868, 55.7522933799575", "NameOfStation": "Авиамоторная", "railway": "", "line": "Калининская линия,БКЛ,D3,", "lineNumber": "i,a,x", "level": 0, "ids": "656,657,658", "day": "70", "hour": "9.4" }, "geometry": { "type": "Point", "coordinates": [ 37.719263154048683, 55.7522933799575 ] } },
{ "type": "Feature", "properties": { "fid": 76, "coordinates": "37.748734700656996, 55.75800674258425", "NameOfStation": "Шоссе Энтузиастов", "railway": "", "line": "МЦК,Калининская линия", "lineNumber": "f,i", "level": 0, "ids": "659,660", "day": "45.1", "hour": "5.6" }, "geometry": { "type": "Point", "coordinates": [ 37.748734700656996, 55.75800674258425 ] } },
{ "type": "Feature", "properties": { "fid": 77, "coordinates": "37.67004990157832, 55.841801175824315", "NameOfStation": "Ростокино", "railway": "", "line": "МЦК,D5,", "lineNumber": "f,v", "level": 0, "ids": "661,662", "day": "37.2", "hour": "7.5" }, "geometry": { "type": "Point", "coordinates": [ 37.670049901578317, 55.841801175824315 ] } },
{ "type": "Feature", "properties": { "fid": 78, "coordinates": "37.63777184902074, 55.844139241969316", "NameOfStation": "Ботанический Сад", "railway": "", "line": "Калужско-Рижская линия,МЦК", "lineNumber": "y,f", "level": 0, "ids": "663,664", "day": "65.1", "hour": "7.8" }, "geometry": { "type": "Point", "coordinates": [ 37.637771849020737, 55.844139241969316 ] } },
{ "type": "Feature", "properties": { "fid": 79, "coordinates": "37.55346102724459, 55.84889469649868", "NameOfStation": "Лихоборы", "railway": "", "line": "МЦК,D3,", "lineNumber": "f,x", "level": 0, "ids": "665,666", "day": "13.8", "hour": "2.5" }, "geometry": { "type": "Point", "coordinates": [ 37.553461027244587, 55.848894696498682 ] } },
{ "type": "Feature", "properties": { "fid": 80, "coordinates": "37.525371400046616, 55.75716568854028", "NameOfStation": "Шелепиха", "railway": "", "line": "БКЛ,МЦК", "lineNumber": "a,f,k", "level": 0, "ids": "667,668", "day": "26.9", "hour": "3.5" }, "geometry": { "type": "Point", "coordinates": [ 37.525371400046616, 55.757165688540283 ] } },
{ "type": "Feature", "properties": { "fid": 81, "coordinates": "37.5311528996205, 55.752563216296934", "NameOfStation": "Тестовская (2023)", "railway": "", "line": "D1,,D4,", "lineNumber": "l,c", "level": 0, "ids": "669,670", "day": "2.7", "hour": "0.8" }, "geometry": { "type": "Point", "coordinates": [ 37.531152899620501, 55.752563216296934 ] } },
{ "type": "Feature", "properties": { "fid": 82, "coordinates": "37.53292965314808, 55.74799200701409", "NameOfStation": "Международная", "railway": "", "line": "МЦК,Филёвская линия", "lineNumber": "f,r", "level": 0, "ids": "672,671", "day": "33", "hour": "8.6" }, "geometry": { "type": "Point", "coordinates": [ 37.532929653148081, 55.747992007014091 ] } },
{ "type": "Feature", "properties": { "fid": 83, "coordinates": "37.539601543621636, 55.749084480478075", "NameOfStation": "Деловой Центр", "railway": "", "line": "БКЛ,Филёвская линия,Калининская линия", "lineNumber": "a,r,i,k", "level": 0, "ids": "674,673,675", "day": "51.6", "hour": "11.9" }, "geometry": { "type": "Point", "coordinates": [ 37.539601543621636, 55.749084480478075 ] } },
{ "type": "Feature", "properties": { "fid": 84, "coordinates": "37.51533133249392, 55.74478546205042", "NameOfStation": "Фили", "railway": "", "line": "Филёвская линия,D1,", "lineNumber": "r,l", "level": 0, "ids": "676,677", "day": "23", "hour": "3.1" }, "geometry": { "type": "Point", "coordinates": [ 37.515331332493922, 55.744785462050423 ] } },
{ "type": "Feature", "properties": { "fid": 85, "coordinates": "37.49854189875563, 55.723222705412184", "NameOfStation": "Минская", "railway": "", "line": "Калининская линия,D4,", "lineNumber": "i,c", "level": 0, "ids": "678,679", "day": "7.7", "hour": "1.3" }, "geometry": { "type": "Point", "coordinates": [ 37.498541898755633, 55.723222705412184 ] } },
{ "type": "Feature", "properties": { "fid": 86, "coordinates": "37.48425224697969, 55.6890576360626", "NameOfStation": "Мичуринский пр-т", "railway": "", "line": "БКЛ,Калининская линия", "lineNumber": "a,i", "level": 0, "ids": "680,681", "day": "12.3", "hour": "1.4" }, "geometry": { "type": "Point", "coordinates": [ 37.484252246979693, 55.6890576360626 ] } },
{ "type": "Feature", "properties": { "fid": 87, "coordinates": "37.46648471170387, 55.696528634478845", "NameOfStation": "Аминьевская", "railway": "", "line": "БКЛ,D4,", "lineNumber": "a,c", "level": 0, "ids": "682,683", "day": "11.2", "hour": "1.5" }, "geometry": { "type": "Point", "coordinates": [ 37.46648471170387, 55.696528634478845 ] } },
{ "type": "Feature", "properties": { "fid": 88, "coordinates": "37.487636539413195, 55.77607759417024", "NameOfStation": "Народное Ополчение", "railway": "", "line": "БКЛ,Рублево-Архангельская", "lineNumber": "a,k", "level": 0, "ids": "685,684", "day": "18.9", "hour": "2.6" }, "geometry": { "type": "Point", "coordinates": [ 37.487636539413195, 55.776077594170239 ] } },
{ "type": "Feature", "properties": { "fid": 89, "coordinates": "37.63665030697888, 55.79372115665197", "NameOfStation": "Рижская (2023)", "railway": "", "line": "Калужско-Рижская линия,БКЛ", "lineNumber": "y,a,z,x,c", "level": 0, "ids": "687,686,710,689,688", "day": "11.6", "hour": "1.5" }, "geometry": { "type": "Point", "coordinates": [ 37.636650306978879, 55.793721156651969 ] } },
{ "type": "Feature", "properties": { "fid": 90, "coordinates": "37.681678553918935, 55.67486742998569", "NameOfStation": "Кленовый бульвар (2023)", "railway": "construction,construction", "line": "Бирюлёвская,БКЛ", "lineNumber": "j,a", "level": 0, "ids": "691,690", "day": null, "hour": null }, "geometry": { "type": "Point", "coordinates": [ 37.681678553918935, 55.674867429985689 ] } },
{ "type": "Feature", "properties": { "fid": 91, "coordinates": "37.5413339793579, 55.658109342608846", "NameOfStation": "Калужская", "railway": "", "line": "Калужско-Рижская линия,БКЛ", "lineNumber": "y,a", "level": 0, "ids": "692,693", "day": "39.9", "hour": "6.7" }, "geometry": { "type": "Point", "coordinates": [ 37.541333979357901, 55.658109342608846 ] } },
{ "type": "Feature", "properties": { "fid": 92, "coordinates": "37.55473013690714, 55.60079202276547", "NameOfStation": "Новоясеневская", "railway": "", "line": "Бутовская линия,Калужско-Рижская линия", "lineNumber": "s,y", "level": 0, "ids": "694,695", "day": "10.4", "hour": "1.6" }, "geometry": { "type": "Point", "coordinates": [ 37.554730136907139, 55.600792022765468 ] } },
{ "type": "Feature", "properties": { "fid": 93, "coordinates": "37.76624841400029, 55.73492608337713", "NameOfStation": "Перово", "railway": "", "line": "D4,,D3,", "lineNumber": "c,x", "level": 0, "ids": "697,696", "day": null, "hour": null }, "geometry": { "type": "Point", "coordinates": [ 37.766248414000287, 55.734926083377132 ] } },
{ "type": "Feature", "properties": { "fid": 94, "coordinates": "37.64108599883504, 55.61055781177563", "NameOfStation": "Котляково (2025)", "railway": "construction", "line": "D2,,D5,", "lineNumber": "z,v", "level": 0, "ids": "699,698", "day": null, "hour": null }, "geometry": { "type": "Point", "coordinates": [ 37.641085998835038, 55.610557811775628 ] } },
{ "type": "Feature", "properties": { "fid": 95, "coordinates": "37.569000570001684, 55.542257892861244", "NameOfStation": "Бутово", "railway": "construction", "line": "Бирюлёвская,D2,", "lineNumber": "z,j", "level": 0, "ids": "700,701", "day": "4.7", "hour": "0.8" }, "geometry": { "type": "Point", "coordinates": [ 37.569000570001684, 55.542257892861244 ] } },
{ "type": "Feature", "properties": { "fid": 96, "coordinates": "37.508297, 55.618979", "NameOfStation": "Теплый Стан", "railway": null, "line": "Калужско-Рижская линия", "lineNumber": "y", "level": 10, "ids": null, "day": "63.9", "hour": "7.2" }, "geometry": { "type": "Point", "coordinates": [ 37.508297, 55.618979 ] } },
{ "type": "Feature", "properties": { "fid": 97, "coordinates": "37.6761, 55.7122", "NameOfStation": "Дубровка", "railway": null, "line": "МЦК", "lineNumber": "f", "level": 10, "ids": null, "day": "11.7", "hour": "1.5" }, "geometry": { "type": "Point", "coordinates": [ 37.6761, 55.7122 ] } },
{ "type": "Feature", "properties": { "fid": 98, "coordinates": "37.604385, 55.612223", "NameOfStation": "Пражская", "railway": null, "line": "Серпуховско-Тимирязевская линия", "lineNumber": "o", "level": 10, "ids": null, "day": "49", "hour": "6.2" }, "geometry": { "type": "Point", "coordinates": [ 37.604385, 55.612223 ] } },
{ "type": "Feature", "properties": { "fid": 99, "coordinates": "37.617831, 55.737663", "NameOfStation": "Полянка", "railway": null, "line": "Серпуховско-Тимирязевская линия", "lineNumber": "o", "level": 10, "ids": null, "day": "19.1", "hour": "4" }, "geometry": { "type": "Point", "coordinates": [ 37.617831, 55.737663 ] } },
{ "type": "Feature", "properties": { "fid": 100, "coordinates": "37.631865, 55.77287", "NameOfStation": "Сухаревская", "railway": null, "line": "Калужско-Рижская линия", "lineNumber": "y", "level": 10, "ids": null, "day": "23.7", "hour": "3.4" }, "geometry": { "type": "Point", "coordinates": [ 37.631865, 55.77287 ] } },
{ "type": "Feature", "properties": { "fid": 101, "coordinates": "37.6956, 55.7178", "NameOfStation": "Угрешская", "railway": null, "line": "МЦК", "lineNumber": "f", "level": 10, "ids": null, "day": "6.5", "hour": "1" }, "geometry": { "type": "Point", "coordinates": [ 37.6956, 55.7178 ] } },
{ "type": "Feature", "properties": { "fid": 102, "coordinates": "37.816729, 55.751749", "NameOfStation": "Новогиреево", "railway": null, "line": "Калининская линия", "lineNumber": "i", "level": 10, "ids": null, "day": "78.2", "hour": "14.6" }, "geometry": { "type": "Point", "coordinates": [ 37.816729, 55.751749 ] } },
{ "type": "Feature", "properties": { "fid": 103, "coordinates": "37.676656, 55.717861", "NameOfStation": "Дубровка", "railway": null, "line": "Люблинско-Дмитровская линия", "lineNumber": "p", "level": 10, "ids": null, "day": "20.4", "hour": "2.7" }, "geometry": { "type": "Point", "coordinates": [ 37.676656, 55.717861 ] } },
{ "type": "Feature", "properties": { "fid": 104, "coordinates": "37.4953, 55.4697", "NameOfStation": "Армазово (2030+)", "railway": "construction", "line": "Бирюлёвская", "lineNumber": "j", "level": 10, "ids": null, "day": null, "hour": null }, "geometry": { "type": "Point", "coordinates": [ 37.4953, 55.4697 ] } },
{ "type": "Feature", "properties": { "fid": 105, "coordinates": "37.719, 55.6109", "NameOfStation": "Домодедовская", "railway": null, "line": "Замоскворецкая линия", "lineNumber": "w", "level": 10, "ids": null, "day": "67.7", "hour": "9.6" }, "geometry": { "type": "Point", "coordinates": [ 37.719, 55.6109 ] } },
{ "type": "Feature", "properties": { "fid": 106, "coordinates": "37.38897057079981, 55.528728013798656", "NameOfStation": "Десна (2027)", "railway": "construction", "line": "Троицкая", "lineNumber": "h", "level": 10, "ids": null, "day": null, "hour": null }, "geometry": { "type": "Point", "coordinates": [ 37.388970570799813, 55.528728013798656 ] } },
{ "type": "Feature", "properties": { "fid": 107, "coordinates": "37.601292, 55.751849", "NameOfStation": "Арбатская", "railway": null, "line": "Филёвская линия", "lineNumber": "r", "level": 10, "ids": null, "day": "5.7", "hour": "0.9" }, "geometry": { "type": "Point", "coordinates": [ 37.601292, 55.751849 ] } },
{ "type": "Feature", "properties": { "fid": 108, "coordinates": "37.525636, 55.642727", "NameOfStation": "Беляево", "railway": null, "line": "Калужско-Рижская линия", "lineNumber": "y", "level": 10, "ids": null, "day": "41.5", "hour": "5.3" }, "geometry": { "type": "Point", "coordinates": [ 37.525636, 55.642727 ] } },
{ "type": "Feature", "properties": { "fid": 109, "coordinates": "37.507444, 55.776836", "NameOfStation": "Хорошёво", "railway": null, "line": "МЦК", "lineNumber": "f", "level": 10, "ids": null, "day": "9.2", "hour": "1.3" }, "geometry": { "type": "Point", "coordinates": [ 37.507444, 55.776836 ] } },
{ "type": "Feature", "properties": { "fid": 110, "coordinates": "37.41403297629239, 55.55042433361657", "NameOfStation": "Летово (2027)", "railway": "construction", "line": "Троицкая", "lineNumber": "h", "level": 10, "ids": null, "day": null, "hour": null }, "geometry": { "type": "Point", "coordinates": [ 37.41403297629239, 55.550424333616569 ] } },
{ "type": "Feature", "properties": { "fid": 111, "coordinates": "37.587118, 55.897878", "NameOfStation": "Алтуфьево", "railway": null, "line": "Серпуховско-Тимирязевская линия", "lineNumber": "o", "level": 10, "ids": null, "day": "51.2", "hour": "9.5" }, "geometry": { "type": "Point", "coordinates": [ 37.587118, 55.897878 ] } },
{ "type": "Feature", "properties": { "fid": 112, "coordinates": "37.8182, 55.7052", "NameOfStation": "Юго-Восточная", "railway": "", "line": "Некрасовская линия", "lineNumber": "g", "level": 10, "ids": null, "day": "13.2", "hour": "2.1" }, "geometry": { "type": "Point", "coordinates": [ 37.8182, 55.7052 ] } },
{ "type": "Feature", "properties": { "fid": 113, "coordinates": "37.75239, 55.727134", "NameOfStation": "Стахановская", "railway": "", "line": "Некрасовская линия", "lineNumber": "g", "level": 10, "ids": null, "day": "7.7", "hour": "0.9" }, "geometry": { "type": "Point", "coordinates": [ 37.75239, 55.727134 ] } },
{ "type": "Feature", "properties": { "fid": 114, "coordinates": "37.533093, 55.800324", "NameOfStation": "Аэропорт", "railway": null, "line": "Замоскворецкая линия", "lineNumber": "w", "level": 10, "ids": null, "day": "43.2", "hour": "5.7" }, "geometry": { "type": "Point", "coordinates": [ 37.533093, 55.800324 ] } },
{ "type": "Feature", "properties": { "fid": 115, "coordinates": "37.7933, 55.717", "NameOfStation": "Рязанский Проспект", "railway": null, "line": "Таганско-Краснопресненская линия", "lineNumber": "u", "level": 10, "ids": null, "day": "36.6", "hour": "4.8" }, "geometry": { "type": "Point", "coordinates": [ 37.7933, 55.717 ] } },
{ "type": "Feature", "properties": { "fid": 116, "coordinates": "37.666781, 55.779932", "NameOfStation": "Красносельская", "railway": null, "line": "Сокольническая линия", "lineNumber": "q", "level": 10, "ids": null, "day": "25.6", "hour": "3.7" }, "geometry": { "type": "Point", "coordinates": [ 37.666781, 55.779932 ] } },
{ "type": "Feature", "properties": { "fid": 117, "coordinates": "37.47142, 55.761209", "NameOfStation": "Мневники", "railway": "", "line": "БКЛ", "lineNumber": "a", "level": 10, "ids": null, "day": "0.9", "hour": "0.2" }, "geometry": { "type": "Point", "coordinates": [ 37.47142, 55.761209 ] } },
{ "type": "Feature", "properties": { "fid": 118, "coordinates": "37.7663, 55.6325", "NameOfStation": "Алма-Атинская", "railway": null, "line": "Замоскворецкая линия", "lineNumber": "w", "level": 10, "ids": null, "day": "15.3", "hour": "2.7" }, "geometry": { "type": "Point", "coordinates": [ 37.7663, 55.6325 ] } },
{ "type": "Feature", "properties": { "fid": 119, "coordinates": "37.580298, 55.727319", "NameOfStation": "Фрунзенская", "railway": null, "line": "Сокольническая линия", "lineNumber": "q", "level": 10, "ids": null, "day": "30.6", "hour": "4.4" }, "geometry": { "type": "Point", "coordinates": [ 37.580298, 55.727319 ] } },
{ "type": "Feature", "properties": { "fid": 120, "coordinates": "37.519, 55.633157", "NameOfStation": "Коньково", "railway": null, "line": "Калужско-Рижская линия", "lineNumber": "y", "level": 10, "ids": null, "day": "30.9", "hour": "4.5" }, "geometry": { "type": "Point", "coordinates": [ 37.519, 55.633157 ] } },
{ "type": "Feature", "properties": { "fid": 121, "coordinates": "37.4796, 55.5992", "NameOfStation": "Мамыри (2024)", "railway": "construction", "line": "Троицкая", "lineNumber": "h", "level": 10, "ids": null, "day": null, "hour": null }, "geometry": { "type": "Point", "coordinates": [ 37.4796, 55.5992 ] } },
{ "type": "Feature", "properties": { "fid": 122, "coordinates": "37.3852, 55.825", "NameOfStation": "Мякинино", "railway": null, "line": "Арбатско-Покровская линия", "lineNumber": "e", "level": 10, "ids": null, "day": "18.7", "hour": "2.5" }, "geometry": { "type": "Point", "coordinates": [ 37.3852, 55.825 ] } },
{ "type": "Feature", "properties": { "fid": 123, "coordinates": "37.7433, 55.65", "NameOfStation": "Марьино", "railway": null, "line": "Люблинско-Дмитровская линия", "lineNumber": "p", "level": 10, "ids": null, "day": "35.4", "hour": "6" }, "geometry": { "type": "Point", "coordinates": [ 37.7433, 55.65 ] } },
{ "type": "Feature", "properties": { "fid": 124, "coordinates": "37.5398, 55.5246", "NameOfStation": "Новокурьяново (2030)", "railway": "construction", "line": "Бирюлёвская", "lineNumber": "j", "level": 10, "ids": null, "day": null, "hour": null }, "geometry": { "type": "Point", "coordinates": [ 37.5398, 55.5246 ] } },
{ "type": "Feature", "properties": { "fid": 125, "coordinates": "37.433, 55.5865", "NameOfStation": "Прошкино", "railway": null, "line": "Сокольническая линия", "lineNumber": "q", "level": 10, "ids": null, "day": "6.7", "hour": "1.1" }, "geometry": { "type": "Point", "coordinates": [ 37.433, 55.5865 ] } },
{ "type": "Feature", "properties": { "fid": 126, "coordinates": "37.302101170656165, 55.48144980499778", "NameOfStation": "Троицк (2027)", "railway": "construction", "line": "Троицкая", "lineNumber": "h", "level": 10, "ids": null, "day": null, "hour": null }, "geometry": { "type": "Point", "coordinates": [ 37.302101170656165, 55.48144980499778 ] } },
{ "type": "Feature", "properties": { "fid": 127, "coordinates": "37.6064, 55.6406", "NameOfStation": "Чертановская", "railway": null, "line": "Серпуховско-Тимирязевская линия", "lineNumber": "o", "level": 10, "ids": null, "day": "36.7", "hour": "5.2" }, "geometry": { "type": "Point", "coordinates": [ 37.6064, 55.6406 ] } },
{ "type": "Feature", "properties": { "fid": 128, "coordinates": "37.4807, 55.6198", "NameOfStation": "Тютчевская (2024)", "railway": "construction", "line": "Троицкая", "lineNumber": "h", "level": 10, "ids": null, "day": null, "hour": null }, "geometry": { "type": "Point", "coordinates": [ 37.4807, 55.6198 ] } },
{ "type": "Feature", "properties": { "fid": 129, "coordinates": "37.4947, 55.8251", "NameOfStation": "Балтийская", "railway": null, "line": "МЦК", "lineNumber": "f", "level": 10, "ids": null, "day": "15.5", "hour": "2.2" }, "geometry": { "type": "Point", "coordinates": [ 37.4947, 55.8251 ] } },
{ "type": "Feature", "properties": { "fid": 130, "coordinates": "37.467091, 55.736025", "NameOfStation": "Пионерская", "railway": null, "line": "Филёвская линия", "lineNumber": "r", "level": 10, "ids": null, "day": "6.8", "hour": "1.1" }, "geometry": { "type": "Point", "coordinates": [ 37.467091, 55.736025 ] } },
{ "type": "Feature", "properties": { "fid": 131, "coordinates": "37.5484, 55.7388", "NameOfStation": "Студенческая", "railway": null, "line": "Филёвская линия", "lineNumber": "r", "level": 10, "ids": null, "day": "7.1", "hour": "0.7" }, "geometry": { "type": "Point", "coordinates": [ 37.5484, 55.7388 ] } },
{ "type": "Feature", "properties": { "fid": 132, "coordinates": "37.4981, 55.8189", "NameOfStation": "Войковская", "railway": null, "line": "Замоскворецкая линия", "lineNumber": "w", "level": 10, "ids": null, "day": "55.5", "hour": "5.4" }, "geometry": { "type": "Point", "coordinates": [ 37.4981, 55.8189 ] } },
{ "type": "Feature", "properties": { "fid": 133, "coordinates": "37.5594, 55.7104", "NameOfStation": "Воробьевы Горы", "railway": null, "line": "Сокольническая линия", "lineNumber": "q", "level": 10, "ids": null, "day": "8.9", "hour": "1.4" }, "geometry": { "type": "Point", "coordinates": [ 37.5594, 55.7104 ] } },
{ "type": "Feature", "properties": { "fid": 134, "coordinates": "37.6493, 55.7692", "NameOfStation": "Красные Ворота", "railway": null, "line": "Сокольническая линия", "lineNumber": "q", "level": 10, "ids": null, "day": "30.2", "hour": "5.9" }, "geometry": { "type": "Point", "coordinates": [ 37.6493, 55.7692 ] } },
{ "type": "Feature", "properties": { "fid": 135, "coordinates": "37.595428, 55.770135", "NameOfStation": "Маяковская", "railway": null, "line": "Замоскворецкая линия", "lineNumber": "w", "level": 10, "ids": null, "day": "39", "hour": "6.8" }, "geometry": { "type": "Point", "coordinates": [ 37.595428, 55.770135 ] } },
{ "type": "Feature", "properties": { "fid": 136, "coordinates": "37.6639, 55.6783", "NameOfStation": "Коломенская", "railway": null, "line": "Замоскворецкая линия", "lineNumber": "w", "level": 10, "ids": null, "day": "54.9", "hour": "6.8" }, "geometry": { "type": "Point", "coordinates": [ 37.6639, 55.6783 ] } },
{ "type": "Feature", "properties": { "fid": 137, "coordinates": "37.737, 55.7462", "NameOfStation": "Андроновка", "railway": null, "line": "МЦК,D3", "lineNumber": "f,x", "level": 0, "ids": "712,713", "day": "9.7", "hour": "1.7" }, "geometry": { "type": "Point", "coordinates": [ 37.737, 55.7462 ] } },
{ "type": "Feature", "properties": { "fid": 138, "coordinates": "37.608, 55.7188", "NameOfStation": "Шаболовская", "railway": null, "line": "Калужско-Рижская линия", "lineNumber": "y", "level": 10, "ids": null, "day": "32.2", "hour": "4.9" }, "geometry": { "type": "Point", "coordinates": [ 37.608, 55.7188 ] } },
{ "type": "Feature", "properties": { "fid": 139, "coordinates": "37.74375, 55.621197", "NameOfStation": "Шипиловская", "railway": null, "line": "Люблинско-Дмитровская линия", "lineNumber": "p", "level": 10, "ids": null, "day": "15.8", "hour": "2.9" }, "geometry": { "type": "Point", "coordinates": [ 37.74375, 55.621197 ] } },
{ "type": "Feature", "properties": { "fid": 140, "coordinates": "37.4762, 55.855", "NameOfStation": "Речной Вокзал", "railway": null, "line": "Замоскворецкая линия", "lineNumber": "w", "level": 10, "ids": null, "day": "30.3", "hour": "4.3" }, "geometry": { "type": "Point", "coordinates": [ 37.4762, 55.855 ] } },
{ "type": "Feature", "properties": { "fid": 141, "coordinates": "37.483371, 55.739559", "NameOfStation": "Филевский Парк", "railway": null, "line": "Филёвская линия", "lineNumber": "r", "level": 10, "ids": null, "day": "9.9", "hour": "1.2" }, "geometry": { "type": "Point", "coordinates": [ 37.483371, 55.739559 ] } },
{ "type": "Feature", "properties": { "fid": 142, "coordinates": "37.799345, 55.7946", "NameOfStation": "Первомайская", "railway": null, "line": "Арбатско-Покровская линия", "lineNumber": "e", "level": 10, "ids": null, "day": "40.1", "hour": "6.1" }, "geometry": { "type": "Point", "coordinates": [ 37.799345, 55.7946 ] } },
{ "type": "Feature", "properties": { "fid": 143, "coordinates": "37.7194, 55.7832", "NameOfStation": "Семеновская", "railway": null, "line": "Арбатско-Покровская линия", "lineNumber": "e", "level": 10, "ids": null, "day": "35.4", "hour": "4.4" }, "geometry": { "type": "Point", "coordinates": [ 37.7194, 55.7832 ] } },
{ "type": "Feature", "properties": { "fid": 144, "coordinates": "37.70274621875693, 55.6586522763819", "NameOfStation": "Курьяново (2028+)", "railway": "construction", "line": "Бирюлёвская", "lineNumber": "j", "level": 10, "ids": null, "day": null, "hour": null }, "geometry": { "type": "Point", "coordinates": [ 37.702746218756928, 55.6586522763819 ] } },
{ "type": "Feature", "properties": { "fid": 145, "coordinates": "37.4986, 55.6975", "NameOfStation": "Раменки", "railway": null, "line": "Калининская линия", "lineNumber": "i", "level": 10, "ids": null, "day": "19.9", "hour": "2.1" }, "geometry": { "type": "Point", "coordinates": [ 37.4986, 55.6975 ] } },
{ "type": "Feature", "properties": { "fid": 146, "coordinates": "37.4516, 55.7153", "NameOfStation": "Давыдково", "railway": "", "line": "БКЛ", "lineNumber": "a", "level": 10, "ids": null, "day": "10.4", "hour": "1.6" }, "geometry": { "type": "Point", "coordinates": [ 37.4516, 55.7153 ] } },
{ "type": "Feature", "properties": { "fid": 147, "coordinates": "37.4398, 55.8505", "NameOfStation": "Сходненская", "railway": null, "line": "Таганско-Краснопресненская линия", "lineNumber": "u", "level": 10, "ids": null, "day": "55.4", "hour": "8.7" }, "geometry": { "type": "Point", "coordinates": [ 37.4398, 55.8505 ] } },
{ "type": "Feature", "properties": { "fid": 148, "coordinates": "37.4832, 55.6637", "NameOfStation": "Юго-Западная", "railway": null, "line": "Сокольническая линия", "lineNumber": "q", "level": 10, "ids": null, "day": "60.1", "hour": "5.6" }, "geometry": { "type": "Point", "coordinates": [ 37.4832, 55.6637 ] } },
{ "type": "Feature", "properties": { "fid": 149, "coordinates": "37.855298, 55.684527", "NameOfStation": "Жулебино", "railway": null, "line": "Таганско-Краснопресненская линия", "lineNumber": "u", "level": 10, "ids": null, "day": "28.1", "hour": "4.4" }, "geometry": { "type": "Point", "coordinates": [ 37.855298, 55.684527 ] } },
{ "type": "Feature", "properties": { "fid": 150, "coordinates": "37.472394, 55.784396", "NameOfStation": "Бульвар Карбышева (2028)", "railway": "construction", "line": "Рублево-Архангельская", "lineNumber": "k", "level": 10, "ids": null, "day": null, "hour": null }, "geometry": { "type": "Point", "coordinates": [ 37.472394, 55.784396 ] } },
{ "type": "Feature", "properties": { "fid": 151, "coordinates": "37.4172, 55.6595", "NameOfStation": "Говорово", "railway": null, "line": "Калининская линия", "lineNumber": "i", "level": 10, "ids": null, "day": "14.6", "hour": "2.6" }, "geometry": { "type": "Point", "coordinates": [ 37.4172, 55.6595 ] } },
{ "type": "Feature", "properties": { "fid": 152, "coordinates": "37.3552, 55.6396", "NameOfStation": "Новопеределкино", "railway": null, "line": "Калининская линия", "lineNumber": "i", "level": 10, "ids": null, "day": "18.1", "hour": "2.9" }, "geometry": { "type": "Point", "coordinates": [ 37.3552, 55.6396 ] } },
{ "type": "Feature", "properties": { "fid": 153, "coordinates": "37.6229, 55.7087", "NameOfStation": "Тульская", "railway": null, "line": "Серпуховско-Тимирязевская линия", "lineNumber": "o", "level": 10, "ids": null, "day": "40", "hour": "7.1" }, "geometry": { "type": "Point", "coordinates": [ 37.6229, 55.7087 ] } },
{ "type": "Feature", "properties": { "fid": 154, "coordinates": "37.43033573703811, 55.55142725864166", "NameOfStation": "Сосенки (2027)", "railway": "construction", "line": "Троицкая", "lineNumber": "h", "level": 10, "ids": null, "day": null, "hour": null }, "geometry": { "type": "Point", "coordinates": [ 37.430335737038106, 55.55142725864166 ] } },
{ "type": "Feature", "properties": { "fid": 155, "coordinates": "37.3347, 55.6339", "NameOfStation": "Рассказовка", "railway": null, "line": "Калининская линия", "lineNumber": "i", "level": 10, "ids": null, "day": "24.2", "hour": "4.8" }, "geometry": { "type": "Point", "coordinates": [ 37.3347, 55.6339 ] } },
{ "type": "Feature", "properties": { "fid": 156, "coordinates": "37.424195, 55.621963", "NameOfStation": "Саларьево", "railway": null, "line": "Сокольническая линия", "lineNumber": "q", "level": 10, "ids": null, "day": "42.3", "hour": "5.9" }, "geometry": { "type": "Point", "coordinates": [ 37.424195, 55.621963 ] } },
{ "type": "Feature", "properties": { "fid": 157, "coordinates": "37.459747, 55.748027", "NameOfStation": "Терехово", "railway": "", "line": "БКЛ", "lineNumber": "a", "level": 10, "ids": null, "day": "2.3", "hour": "0.8" }, "geometry": { "type": "Point", "coordinates": [ 37.459747, 55.748027 ] } },
{ "type": "Feature", "properties": { "fid": 158, "coordinates": "37.6049, 55.8634", "NameOfStation": "Отрадное", "railway": null, "line": "Серпуховско-Тимирязевская линия", "lineNumber": "o", "level": 10, "ids": null, "day": "54.8", "hour": "9.6" }, "geometry": { "type": "Point", "coordinates": [ 37.6049, 55.8634 ] } },
{ "type": "Feature", "properties": { "fid": 159, "coordinates": "37.5779, 55.5816", "NameOfStation": "Лесопарковая", "railway": null, "line": "Бутовская линия", "lineNumber": "s", "level": 10, "ids": null, "day": "6", "hour": "0.7" }, "geometry": { "type": "Point", "coordinates": [ 37.5779, 55.5816 ] } },
{ "type": "Feature", "properties": { "fid": 160, "coordinates": "37.4489, 55.6705", "NameOfStation": "Озёрная", "railway": null, "line": "Калининская линия", "lineNumber": "i", "level": 10, "ids": null, "day": "18.7", "hour": "2" }, "geometry": { "type": "Point", "coordinates": [ 37.4489, 55.6705 ] } },
{ "type": "Feature", "properties": { "fid": 161, "coordinates": "37.7437, 55.6334", "NameOfStation": "Борисово", "railway": null, "line": "Люблинско-Дмитровская линия", "lineNumber": "p", "level": 10, "ids": null, "day": "13.1", "hour": "2.6" }, "geometry": { "type": "Point", "coordinates": [ 37.7437, 55.6334 ] } },
{ "type": "Feature", "properties": { "fid": 162, "coordinates": "37.9023, 55.7086", "NameOfStation": "Лухмановская", "railway": null, "line": "Некрасовская линия", "lineNumber": "g", "level": 10, "ids": null, "day": "18.1", "hour": "3.5" }, "geometry": { "type": "Point", "coordinates": [ 37.9023, 55.7086 ] } },
{ "type": "Feature", "properties": { "fid": 163, "coordinates": "37.4935, 55.7935", "NameOfStation": "Октябрьское Поле", "railway": null, "line": "Таганско-Краснопресненская линия", "lineNumber": "u", "level": 10, "ids": null, "day": "48.1", "hour": "4.9" }, "geometry": { "type": "Point", "coordinates": [ 37.4935, 55.7935 ] } },
{ "type": "Feature", "properties": { "fid": 164, "coordinates": "37.515409, 55.53787", "NameOfStation": "Бунинская Аллея", "railway": null, "line": "Бутовская линия", "lineNumber": "s", "level": 10, "ids": null, "day": "23.4", "hour": "4.5" }, "geometry": { "type": "Point", "coordinates": [ 37.515409, 55.53787 ] } },
{ "type": "Feature", "properties": { "fid": 165, "coordinates": "37.5151, 55.8052", "NameOfStation": "Сокол", "railway": null, "line": "Замоскворецкая линия", "lineNumber": "w", "level": 10, "ids": null, "day": "40.5", "hour": "5.7" }, "geometry": { "type": "Point", "coordinates": [ 37.5151, 55.8052 ] } },
{ "type": "Feature", "properties": { "fid": 166, "coordinates": "37.4674, 55.5742", "NameOfStation": "Бачуринская (2024)", "railway": "construction", "line": "Троицкая", "lineNumber": "h", "level": 10, "ids": null, "day": null, "hour": null }, "geometry": { "type": "Point", "coordinates": [ 37.4674, 55.5742 ] } },
{ "type": "Feature", "properties": { "fid": 167, "coordinates": "37.6528, 55.8552", "NameOfStation": "Свиблово", "railway": null, "line": "Калужско-Рижская линия", "lineNumber": "y", "level": 10, "ids": null, "day": "27.7", "hour": "4" }, "geometry": { "type": "Point", "coordinates": [ 37.6528, 55.8552 ] } },
{ "type": "Feature", "properties": { "fid": 168, "coordinates": "37.5547, 55.6703", "NameOfStation": "Новые Черемушки", "railway": null, "line": "Калужско-Рижская линия", "lineNumber": "y", "level": 10, "ids": null, "day": "41.2", "hour": "4.4" }, "geometry": { "type": "Point", "coordinates": [ 37.5547, 55.6703 ] } },
{ "type": "Feature", "properties": { "fid": 169, "coordinates": "37.5153, 55.4771", "NameOfStation": "Алхимово (2030+)", "railway": "construction", "line": "Бирюлёвская", "lineNumber": "j", "level": 10, "ids": null, "day": null, "hour": null }, "geometry": { "type": "Point", "coordinates": [ 37.5153, 55.4771 ] } },
{ "type": "Feature", "properties": { "fid": 170, "coordinates": "37.334, 55.793", "NameOfStation": "Рублево-Архангельское (2028+)", "railway": "construction", "line": "Рублево-Архангельская", "lineNumber": "k", "level": 10, "ids": null, "day": null, "hour": null }, "geometry": { "type": "Point", "coordinates": [ 37.334, 55.793 ] } },
{ "type": "Feature", "properties": { "fid": 171, "coordinates": "37.5157, 55.7069", "NameOfStation": "Ломоносовский проспект", "railway": null, "line": "Калининская линия", "lineNumber": "i", "level": 10, "ids": null, "day": "15.2", "hour": "1.9" }, "geometry": { "type": "Point", "coordinates": [ 37.5157, 55.7069 ] } },
{ "type": "Feature", "properties": { "fid": 172, "coordinates": "37.3621, 55.8458", "NameOfStation": "Митино", "railway": null, "line": "Арбатско-Покровская линия", "lineNumber": "e", "level": 10, "ids": null, "day": "28.1", "hour": "4.7" }, "geometry": { "type": "Point", "coordinates": [ 37.3621, 55.8458 ] } },
{ "type": "Feature", "properties": { "fid": 173, "coordinates": "37.5216, 55.4962", "NameOfStation": "Проектируемый проезд №947 (2030+)", "railway": "construction", "line": "Бирюлёвская", "lineNumber": "j", "level": 10, "ids": null, "day": null, "hour": null }, "geometry": { "type": "Point", "coordinates": [ 37.5216, 55.4962 ] } },
{ "type": "Feature", "properties": { "fid": 174, "coordinates": "37.48683, 55.839886", "NameOfStation": "Водный Стадион", "railway": null, "line": "Замоскворецкая линия", "lineNumber": "w", "level": 10, "ids": null, "day": "46.1", "hour": "5" }, "geometry": { "type": "Point", "coordinates": [ 37.48683, 55.839886 ] } },
{ "type": "Feature", "properties": { "fid": 175, "coordinates": "37.4081, 55.7566", "NameOfStation": "Крылатское", "railway": null, "line": "Арбатско-Покровская линия", "lineNumber": "e", "level": 10, "ids": null, "day": "29.3", "hour": "3.4" }, "geometry": { "type": "Point", "coordinates": [ 37.4081, 55.7566 ] } },
{ "type": "Feature", "properties": { "fid": 176, "coordinates": "37.5401, 55.6843", "NameOfStation": "Вавиловская (2024)", "railway": "construction", "line": "Троицкая", "lineNumber": "h", "level": 10, "ids": null, "day": null, "hour": null }, "geometry": { "type": "Point", "coordinates": [ 37.5401, 55.6843 ] } },
{ "type": "Feature", "properties": { "fid": 177, "coordinates": "37.5042, 55.7891", "NameOfStation": "Зорге", "railway": null, "line": "МЦК", "lineNumber": "f", "level": 10, "ids": null, "day": "6.7", "hour": "1.2" }, "geometry": { "type": "Point", "coordinates": [ 37.5042, 55.7891 ] } },
{ "type": "Feature", "properties": { "fid": 178, "coordinates": "37.7025, 55.8293", "NameOfStation": "Белокаменная", "railway": null, "line": "МЦК", "lineNumber": "f", "level": 10, "ids": null, "day": "1.6", "hour": "0.2" }, "geometry": { "type": "Point", "coordinates": [ 37.7025, 55.8293 ] } },
{ "type": "Feature", "properties": { "fid": 179, "coordinates": "37.521653, 55.840396", "NameOfStation": "Коптево", "railway": null, "line": "МЦК", "lineNumber": "f", "level": 10, "ids": null, "day": "18.8", "hour": "2.4" }, "geometry": { "type": "Point", "coordinates": [ 37.521653, 55.840396 ] } },
{ "type": "Feature", "properties": { "fid": 180, "coordinates": "37.6565, 55.6358", "NameOfStation": "Кантемировская", "railway": null, "line": "Замоскворецкая линия", "lineNumber": "w", "level": 10, "ids": null, "day": "40.1", "hour": "5.8" }, "geometry": { "type": "Point", "coordinates": [ 37.6565, 55.6358 ] } },
{ "type": "Feature", "properties": { "fid": 181, "coordinates": "37.5331, 55.7865", "NameOfStation": "ЦСКА", "railway": null, "line": "БКЛ", "lineNumber": "a", "level": 10, "ids": null, "day": "28.1", "hour": "3.5" }, "geometry": { "type": "Point", "coordinates": [ 37.5331, 55.7865 ] } },
{ "type": "Feature", "properties": { "fid": 182, "coordinates": "37.679, 55.7724", "NameOfStation": "Бауманская", "railway": null, "line": "Арбатско-Покровская линия", "lineNumber": "e", "level": 10, "ids": null, "day": "65.4", "hour": "9.8" }, "geometry": { "type": "Point", "coordinates": [ 37.679, 55.7724 ] } },
{ "type": "Feature", "properties": { "fid": 183, "coordinates": "37.533282, 55.60632", "NameOfStation": "Ясенево", "railway": null, "line": "Калужско-Рижская линия", "lineNumber": "y", "level": 10, "ids": null, "day": "33.1", "hour": "5.3" }, "geometry": { "type": "Point", "coordinates": [ 37.533282, 55.60632 ] } },
{ "type": "Feature", "properties": { "fid": 184, "coordinates": "37.541872, 55.54505", "NameOfStation": "Бульвар Адмирала Ушакова", "railway": null, "line": "Бутовская линия", "lineNumber": "s", "level": 10, "ids": null, "day": "11.5", "hour": "2" }, "geometry": { "type": "Point", "coordinates": [ 37.541872, 55.54505 ] } },
{ "type": "Feature", "properties": { "fid": 185, "coordinates": "37.6027, 55.8133", "NameOfStation": "Бутырская", "railway": null, "line": "Люблинско-Дмитровская линия", "lineNumber": "p", "level": 10, "ids": null, "day": "16.2", "hour": "2.5" }, "geometry": { "type": "Point", "coordinates": [ 37.6027, 55.8133 ] } },
{ "type": "Feature", "properties": { "fid": 186, "coordinates": "37.9278, 55.7031", "NameOfStation": "Некрасовка", "railway": null, "line": "Некрасовская линия", "lineNumber": "g", "level": 10, "ids": null, "day": "59.4", "hour": "12.2" }, "geometry": { "type": "Point", "coordinates": [ 37.9278, 55.7031 ] } },
{ "type": "Feature", "properties": { "fid": 187, "coordinates": "37.4725, 55.6459", "NameOfStation": "Тропарево", "railway": null, "line": "Сокольническая линия", "lineNumber": "q", "level": 10, "ids": null, "day": "20.8", "hour": "2.8" }, "geometry": { "type": "Point", "coordinates": [ 37.4725, 55.6459 ] } },
{ "type": "Feature", "properties": { "fid": 188, "coordinates": "37.5732, 55.6559", "NameOfStation": "Зюзино", "railway": "", "line": "БКЛ", "lineNumber": "a", "level": 10, "ids": null, "day": "16.1", "hour": "2.5" }, "geometry": { "type": "Point", "coordinates": [ 37.5732, 55.6559 ] } },
{ "type": "Feature", "properties": { "fid": 189, "coordinates": "37.41684, 55.740817", "NameOfStation": "Молодежная", "railway": null, "line": "Арбатско-Покровская линия", "lineNumber": "e", "level": 10, "ids": null, "day": "51.8", "hour": "5.9" }, "geometry": { "type": "Point", "coordinates": [ 37.41684, 55.740817 ] } },
{ "type": "Feature", "properties": { "fid": 190, "coordinates": "37.610688, 55.67283", "NameOfStation": "Нагорная", "railway": null, "line": "Серпуховско-Тимирязевская линия", "lineNumber": "o", "level": 10, "ids": null, "day": "17.6", "hour": "1.8" }, "geometry": { "type": "Point", "coordinates": [ 37.610688, 55.67283 ] } },
{ "type": "Feature", "properties": { "fid": 191, "coordinates": "37.451046, 55.789151", "NameOfStation": "Серебряный Бор (2028)", "railway": "construction", "line": "Рублево-Архангельская", "lineNumber": "k", "level": 10, "ids": null, "day": null, "hour": null }, "geometry": { "type": "Point", "coordinates": [ 37.451046, 55.789151 ] } },
{ "type": "Feature", "properties": { "fid": 192, "coordinates": "37.8565, 55.6752", "NameOfStation": "Котельники", "railway": null, "line": "Таганско-Краснопресненская линия", "lineNumber": "u", "level": 10, "ids": null, "day": "55.8", "hour": "8.9" }, "geometry": { "type": "Point", "coordinates": [ 37.8565, 55.6752 ] } },
{ "type": "Feature", "properties": { "fid": 193, "coordinates": "37.436465, 55.8607", "NameOfStation": "Планерная", "railway": null, "line": "Таганско-Краснопресненская линия", "lineNumber": "u", "level": 10, "ids": null, "day": "46.9", "hour": "8" }, "geometry": { "type": "Point", "coordinates": [ 37.436465, 55.8607 ] } },
{ "type": "Feature", "properties": { "fid": 194, "coordinates": "37.782, 55.7182", "NameOfStation": "Окская", "railway": "", "line": "Некрасовская линия", "lineNumber": "g", "level": 10, "ids": null, "day": "7.9", "hour": "1.1" }, "geometry": { "type": "Point", "coordinates": [ 37.782, 55.7182 ] } },
{ "type": "Feature", "properties": { "fid": 195, "coordinates": "37.508193, 55.648691", "NameOfStation": "Университет Дружбы Народов (2024)", "railway": "construction", "line": "Троицкая", "lineNumber": "h", "level": 10, "ids": null, "day": null, "hour": null }, "geometry": { "type": "Point", "coordinates": [ 37.508193, 55.648691 ] } },
{ "type": "Feature", "properties": { "fid": 196, "coordinates": "37.4605, 55.4747", "NameOfStation": "Андреевское (2030+)", "railway": "construction", "line": "Бирюлёвская", "lineNumber": "j", "level": 10, "ids": null, "day": null, "hour": null }, "geometry": { "type": "Point", "coordinates": [ 37.4605, 55.4747 ] } },
{ "type": "Feature", "properties": { "fid": 197, "coordinates": "37.704547, 55.684514", "NameOfStation": "Нагатинский затон (2022)", "railway": "construction", "line": "БКЛ", "lineNumber": "a", "level": 10, "ids": null, "day": null, "hour": null }, "geometry": { "type": "Point", "coordinates": [ 37.704547, 55.684514 ] } },
{ "type": "Feature", "properties": { "fid": 198, "coordinates": "37.619537, 55.65334", "NameOfStation": "Варшавская (2023)", "railway": "construction", "line": "БКЛ,D5", "lineNumber": "a,v", "level": 0, "ids": "702,703", "day": null, "hour": null }, "geometry": { "type": "Point", "coordinates": [ 37.619537, 55.65334 ] } },
{ "type": "Feature", "properties": { "fid": 199, "coordinates": "37.3713, 55.6479", "NameOfStation": "Боровское шоссе", "railway": null, "line": "Калининская линия", "lineNumber": "i", "level": 10, "ids": null, "day": "6", "hour": "0.9" }, "geometry": { "type": "Point", "coordinates": [ 37.3713, 55.6479 ] } },
{ "type": "Feature", "properties": { "fid": 200, "coordinates": "37.68119509135546, 55.58205376588641", "NameOfStation": "Лебедянская (2028+)", "railway": "construction", "line": "Бирюлёвская", "lineNumber": "j", "level": 10, "ids": null, "day": null, "hour": null }, "geometry": { "type": "Point", "coordinates": [ 37.681195091355463, 55.582053765886407 ] } },
{ "type": "Feature", "properties": { "fid": 201, "coordinates": "37.672295401291095, 55.59616581064006", "NameOfStation": "Липецкая (2028+)", "railway": "construction", "line": "Бирюлёвская", "lineNumber": "j", "level": 10, "ids": null, "day": null, "hour": null }, "geometry": { "type": "Point", "coordinates": [ 37.672295401291095, 55.596165810640059 ] } },
{ "type": "Feature", "properties": { "fid": 202, "coordinates": "37.761837, 55.675621", "NameOfStation": "Люблино", "railway": null, "line": "Люблинско-Дмитровская линия", "lineNumber": "p", "level": 10, "ids": null, "day": "48.5", "hour": "7.4" }, "geometry": { "type": "Point", "coordinates": [ 37.761837, 55.675621 ] } },
{ "type": "Feature", "properties": { "fid": 203, "coordinates": "37.5463, 55.9211", "NameOfStation": "Физтех (2023)", "railway": "construction", "line": "Люблинско-Дмитровская линия", "lineNumber": "p", "level": 10, "ids": null, "day": null, "hour": null }, "geometry": { "type": "Point", "coordinates": [ 37.5463, 55.9211 ] } },
{ "type": "Feature", "properties": { "fid": 204, "coordinates": "37.8637, 55.7451", "NameOfStation": "Новокосино", "railway": null, "line": "Калининская линия", "lineNumber": "i", "level": 10, "ids": null, "day": "69.5", "hour": "15" }, "geometry": { "type": "Point", "coordinates": [ 37.8637, 55.7451 ] } },
{ "type": "Feature", "properties": { "fid": 205, "coordinates": "37.878671, 55.710549", "NameOfStation": "Ул. Дмитриевского", "railway": null, "line": "Некрасовская линия", "lineNumber": "g", "level": 10, "ids": null, "day": "10.3", "hour": "1.7" }, "geometry": { "type": "Point", "coordinates": [ 37.878671, 55.710549 ] } },
{ "type": "Feature", "properties": { "fid": 206, "coordinates": "37.6056, 55.6626", "NameOfStation": "Нахимовский Проспект", "railway": null, "line": "Серпуховско-Тимирязевская линия", "lineNumber": "o", "level": 10, "ids": null, "day": "26", "hour": "3" }, "geometry": { "type": "Point", "coordinates": [ 37.6056, 55.6626 ] } },
{ "type": "Feature", "properties": { "fid": 207, "coordinates": "37.7986, 55.8093", "NameOfStation": "Щелковская", "railway": null, "line": "Арбатско-Покровская линия", "lineNumber": "e", "level": 10, "ids": null, "day": "82.1", "hour": "13.7" }, "geometry": { "type": "Point", "coordinates": [ 37.7986, 55.8093 ] } },
{ "type": "Feature", "properties": { "fid": 208, "coordinates": "37.781595, 55.787763", "NameOfStation": "Измайловская", "railway": null, "line": "Арбатско-Покровская линия", "lineNumber": "e", "level": 10, "ids": null, "day": "21", "hour": "3" }, "geometry": { "type": "Point", "coordinates": [ 37.781595, 55.787763 ] } },
{ "type": "Feature", "properties": { "fid": 209, "coordinates": "37.547353, 55.865956", "NameOfStation": "Селигерская", "railway": null, "line": "Люблинско-Дмитровская линия", "lineNumber": "p", "level": 10, "ids": null, "day": "50", "hour": "9.1" }, "geometry": { "type": "Point", "coordinates": [ 37.547353, 55.865956 ] } },
{ "type": "Feature", "properties": { "fid": 210, "coordinates": "37.7505, 55.6597", "NameOfStation": "Братиславская", "railway": null, "line": "Люблинско-Дмитровская линия", "lineNumber": "p", "level": 10, "ids": null, "day": "42.5", "hour": "7" }, "geometry": { "type": "Point", "coordinates": [ 37.7505, 55.6597 ] } },
{ "type": "Feature", "properties": { "fid": 211, "coordinates": "37.5915, 55.5592", "NameOfStation": "Новобутовская (2030+)", "railway": "construction", "line": "Бирюлёвская", "lineNumber": "j", "level": 10, "ids": null, "day": null, "hour": null }, "geometry": { "type": "Point", "coordinates": [ 37.5915, 55.5592 ] } },
{ "type": "Feature", "properties": { "fid": 212, "coordinates": "37.7865, 55.7512", "NameOfStation": "Перово", "railway": null, "line": "Калининская линия", "lineNumber": "i", "level": 10, "ids": null, "day": "45.3", "hour": "7.4" }, "geometry": { "type": "Point", "coordinates": [ 37.7865, 55.7512 ] } },
{ "type": "Feature", "properties": { "fid": 213, "coordinates": "37.641225, 55.821097", "NameOfStation": "ВДНХ", "railway": null, "line": "Калужско-Рижская линия", "lineNumber": "y", "level": 10, "ids": null, "day": "70.8", "hour": "6.8" }, "geometry": { "type": "Point", "coordinates": [ 37.641225, 55.821097 ] } },
{ "type": "Feature", "properties": { "fid": 214, "coordinates": "37.6615, 55.8871", "NameOfStation": "Медведково", "railway": null, "line": "Калужско-Рижская линия", "lineNumber": "y", "level": 10, "ids": null, "day": "58.4", "hour": "10.7" }, "geometry": { "type": "Point", "coordinates": [ 37.6615, 55.8871 ] } },
{ "type": "Feature", "properties": { "fid": 215, "coordinates": "37.545892, 55.87914", "NameOfStation": "Яхромская (2023)", "railway": "construction", "line": "Люблинско-Дмитровская линия", "lineNumber": "p", "level": 10, "ids": null, "day": null, "hour": null }, "geometry": { "type": "Point", "coordinates": [ 37.545892, 55.87914 ] } },
{ "type": "Feature", "properties": { "fid": 216, "coordinates": "37.5351, 55.5138", "NameOfStation": "Посёлок Гарнизона \"Остафьево\" (2030+)", "railway": "construction", "line": "Бирюлёвская", "lineNumber": "j", "level": 10, "ids": null, "day": null, "hour": null }, "geometry": { "type": "Point", "coordinates": [ 37.5351, 55.5138 ] } },
{ "type": "Feature", "properties": { "fid": 217, "coordinates": "37.609146, 55.622305", "NameOfStation": "Южная", "railway": null, "line": "Серпуховско-Тимирязевская линия", "lineNumber": "o", "level": 10, "ids": null, "day": "25.5", "hour": "3.4" }, "geometry": { "type": "Point", "coordinates": [ 37.609146, 55.622305 ] } },
{ "type": "Feature", "properties": { "fid": 218, "coordinates": "37.5506, 55.533", "NameOfStation": "Чечёрская (2030+)", "railway": "construction", "line": "Бирюлёвская", "lineNumber": "j", "level": 10, "ids": null, "day": null, "hour": null }, "geometry": { "type": "Point", "coordinates": [ 37.5506, 55.533 ] } },
{ "type": "Feature", "properties": { "fid": 219, "coordinates": "37.655198258144765, 55.608531826390035", "NameOfStation": "Каспийская (2028+)", "railway": "construction", "line": "Бирюлёвская", "lineNumber": "j", "level": 10, "ids": null, "day": null, "hour": null }, "geometry": { "type": "Point", "coordinates": [ 37.655198258144765, 55.608531826390035 ] } },
{ "type": "Feature", "properties": { "fid": 220, "coordinates": "37.666787343677775, 55.63124684106891", "NameOfStation": "Кавказский бульвар (2028+)", "railway": "construction", "line": "Бирюлёвская", "lineNumber": "j", "level": 10, "ids": null, "day": null, "hour": null }, "geometry": { "type": "Point", "coordinates": [ 37.666787343677775, 55.631246841068908 ] } },
{ "type": "Feature", "properties": { "fid": 221, "coordinates": "37.533723, 55.69287", "NameOfStation": "Университет", "railway": null, "line": "Сокольническая линия", "lineNumber": "q", "level": 10, "ids": null, "day": "34.6", "hour": "3.8" }, "geometry": { "type": "Point", "coordinates": [ 37.533723, 55.69287 ] } },
{ "type": "Feature", "properties": { "fid": 222, "coordinates": "37.486, 55.6262", "NameOfStation": "Генерала Тюленева (2024)", "railway": "construction", "line": "Троицкая", "lineNumber": "h", "level": 10, "ids": null, "day": null, "hour": null }, "geometry": { "type": "Point", "coordinates": [ 37.486, 55.6262 ] } },
{ "type": "Feature", "properties": { "fid": 223, "coordinates": "37.638702, 55.80782", "NameOfStation": "Алексеевская", "railway": null, "line": "Калужско-Рижская линия", "lineNumber": "y", "level": 10, "ids": null, "day": "38.9", "hour": "5.7" }, "geometry": { "type": "Point", "coordinates": [ 37.638702, 55.80782 ] } },
{ "type": "Feature", "properties": { "fid": 224, "coordinates": "37.7529, 55.691", "NameOfStation": "Волжская", "railway": null, "line": "Люблинско-Дмитровская линия", "lineNumber": "p", "level": 10, "ids": null, "day": "18.9", "hour": "3.2" }, "geometry": { "type": "Point", "coordinates": [ 37.7529, 55.691 ] } },
{ "type": "Feature", "properties": { "fid": 225, "coordinates": "37.694977, 55.613192", "NameOfStation": "Орехово", "railway": null, "line": "Замоскворецкая линия", "lineNumber": "w", "level": 10, "ids": null, "day": "21", "hour": "3.4" }, "geometry": { "type": "Point", "coordinates": [ 37.694977, 55.613192 ] } },
{ "type": "Feature", "properties": { "fid": 226, "coordinates": "37.5967, 55.5827", "NameOfStation": "Аннино", "railway": null, "line": "Серпуховско-Тимирязевская линия", "lineNumber": "o", "level": 10, "ids": null, "day": "27.5", "hour": "3.8" }, "geometry": { "type": "Point", "coordinates": [ 37.5967, 55.5827 ] } },
{ "type": "Feature", "properties": { "fid": 227, "coordinates": "37.5615, 55.7647", "NameOfStation": "Ул. 1905 Года", "railway": null, "line": "Таганско-Краснопресненская линия", "lineNumber": "u", "level": 10, "ids": null, "day": "52.5", "hour": "9.3" }, "geometry": { "type": "Point", "coordinates": [ 37.5615, 55.7647 ] } },
{ "type": "Feature", "properties": { "fid": 228, "coordinates": "37.4082, 55.601", "NameOfStation": "Филатов луг", "railway": null, "line": "Сокольническая линия", "lineNumber": "q", "level": 10, "ids": null, "day": "13.8", "hour": "2.4" }, "geometry": { "type": "Point", "coordinates": [ 37.4082, 55.601 ] } },
{ "type": "Feature", "properties": { "fid": 229, "coordinates": "37.6854, 55.7067", "NameOfStation": "Кожуховская", "railway": null, "line": "Люблинско-Дмитровская линия", "lineNumber": "p", "level": 10, "ids": null, "day": "27.1", "hour": "5" }, "geometry": { "type": "Point", "coordinates": [ 37.6854, 55.7067 ] } },
{ "type": "Feature", "properties": { "fid": 230, "coordinates": "37.7151, 55.7963", "NameOfStation": "Преображенская Площадь", "railway": null, "line": "Сокольническая линия", "lineNumber": "q", "level": 10, "ids": null, "day": "50.1", "hour": "5.9" }, "geometry": { "type": "Point", "coordinates": [ 37.7151, 55.7963 ] } },
{ "type": "Feature", "properties": { "fid": 231, "coordinates": "37.816577, 55.823379", "NameOfStation": "Гольяново (2027)", "railway": "construction", "line": "Арбатско-Покровская линия", "lineNumber": "e", "level": 10, "ids": null, "day": null, "hour": null }, "geometry": { "type": "Point", "coordinates": [ 37.816577, 55.823379 ] } },
{ "type": "Feature", "properties": { "fid": 232, "coordinates": "37.7659, 55.7056", "NameOfStation": "Кузьминки", "railway": null, "line": "Таганско-Краснопресненская линия", "lineNumber": "u", "level": 10, "ids": null, "day": "63.1", "hour": "8.9" }, "geometry": { "type": "Point", "coordinates": [ 37.7659, 55.7056 ] } },
{ "type": "Feature", "properties": { "fid": 233, "coordinates": "37.497833, 55.743782", "NameOfStation": "Багратионовская", "railway": null, "line": "Филёвская линия", "lineNumber": "r", "level": 10, "ids": null, "day": "17", "hour": "1.8" }, "geometry": { "type": "Point", "coordinates": [ 37.497833, 55.743782 ] } },
{ "type": "Feature", "properties": { "fid": 234, "coordinates": "37.5629, 55.678", "NameOfStation": "Профсоюзная", "railway": null, "line": "Калужско-Рижская линия", "lineNumber": "y", "level": 10, "ids": null, "day": "36.5", "hour": "3.9" }, "geometry": { "type": "Point", "coordinates": [ 37.5629, 55.678 ] } },
{ "type": "Feature", "properties": { "fid": 235, "coordinates": "37.4938, 55.5527", "NameOfStation": "Потапово (2024)", "railway": "construction", "line": "Сокольническая линия", "lineNumber": "q", "level": 10, "ids": null, "day": null, "hour": null }, "geometry": { "type": "Point", "coordinates": [ 37.4938, 55.5527 ] } },
{ "type": "Feature", "properties": { "fid": 236, "coordinates": "37.6038, 55.8838", "NameOfStation": "Бибирево", "railway": null, "line": "Серпуховско-Тимирязевская линия", "lineNumber": "o", "level": 10, "ids": null, "day": "32.5", "hour": "5.7" }, "geometry": { "type": "Point", "coordinates": [ 37.6038, 55.8838 ] } },
{ "type": "Feature", "properties": { "fid": 237, "coordinates": "37.459188, 55.568862", "NameOfStation": "Ольховая", "railway": null, "line": "Сокольническая линия", "lineNumber": "q", "level": 10, "ids": null, "day": "8.7", "hour": "1.2" }, "geometry": { "type": "Point", "coordinates": [ 37.459188, 55.568862 ] } },
{ "type": "Feature", "properties": { "fid": 238, "coordinates": "37.2958, 55.6245", "NameOfStation": "Пыхтино (2023)", "railway": "construction", "line": "Калининская линия", "lineNumber": "i", "level": 10, "ids": null, "day": null, "hour": null }, "geometry": { "type": "Point", "coordinates": [ 37.2958, 55.6245 ] } },
{ "type": "Feature", "properties": { "fid": 239, "coordinates": "37.475369, 55.86522", "NameOfStation": "Беломорская", "railway": null, "line": "Замоскворецкая линия", "lineNumber": "w", "level": 10, "ids": null, "day": "33.2", "hour": "5.8" }, "geometry": { "type": "Point", "coordinates": [ 37.475369, 55.86522 ] } },
{ "type": "Feature", "properties": { "fid": 240, "coordinates": "37.600422, 55.595121", "NameOfStation": "Ул. Академика Янгеля", "railway": null, "line": "Серпуховско-Тимирязевская линия", "lineNumber": "o", "level": 10, "ids": null, "day": "29.9", "hour": "5" }, "geometry": { "type": "Point", "coordinates": [ 37.600422, 55.595121 ] } },
{ "type": "Feature", "properties": { "fid": 241, "coordinates": "37.5599, 55.8572", "NameOfStation": "Верхние Лихоборы", "railway": null, "line": "Люблинско-Дмитровская линия", "lineNumber": "p", "level": 10, "ids": null, "day": "15", "hour": "2.4" }, "geometry": { "type": "Point", "coordinates": [ 37.5599, 55.8572 ] } },
{ "type": "Feature", "properties": { "fid": 242, "coordinates": "37.686857, 55.725303", "NameOfStation": "Волгоградский Проспект", "railway": null, "line": "Таганско-Краснопресненская линия", "lineNumber": "u", "level": 10, "ids": null, "day": "23.7", "hour": "3.8" }, "geometry": { "type": "Point", "coordinates": [ 37.686857, 55.725303 ] } },
{ "type": "Feature", "properties": { "fid": 243, "coordinates": "37.37546, 55.794947", "NameOfStation": "Липовая Роща (2028)", "railway": "construction", "line": "Рублево-Архангельская", "lineNumber": "k", "level": 10, "ids": null, "day": null, "hour": null }, "geometry": { "type": "Point", "coordinates": [ 37.37546, 55.794947 ] } },
{ "type": "Feature", "properties": { "fid": 244, "coordinates": "37.3021, 55.801", "NameOfStation": "Ильинская (2028+)", "railway": "construction", "line": "Рублево-Архангельская", "lineNumber": "k", "level": 10, "ids": null, "day": null, "hour": null }, "geometry": { "type": "Point", "coordinates": [ 37.3021, 55.801 ] } },
{ "type": "Feature", "properties": { "fid": 245, "coordinates": "37.4413, 55.6329", "NameOfStation": "Румянцево", "railway": null, "line": "Сокольническая линия", "lineNumber": "q", "level": 10, "ids": null, "day": "13.3", "hour": "3.6" }, "geometry": { "type": "Point", "coordinates": [ 37.4413, 55.6329 ] } },
{ "type": "Feature", "properties": { "fid": 246, "coordinates": "37.706647, 55.764945", "NameOfStation": "Лефортово", "railway": "", "line": "БКЛ", "lineNumber": "a", "level": 10, "ids": null, "day": "7.9", "hour": "0.9" }, "geometry": { "type": "Point", "coordinates": [ 37.706647, 55.764945 ] } },
{ "type": "Feature", "properties": { "fid": 247, "coordinates": "37.508158, 55.766519", "NameOfStation": "Звенигородская (2028)", "railway": "construction", "line": "Рублево-Архангельская", "lineNumber": "k", "level": 10, "ids": null, "day": null, "hour": null }, "geometry": { "type": "Point", "coordinates": [ 37.508158, 55.766519 ] } },
{ "type": "Feature", "properties": { "fid": 248, "coordinates": "37.7454, 55.77", "NameOfStation": "Соколиная Гора", "railway": null, "line": "МЦК", "lineNumber": "f", "level": 10, "ids": null, "day": "7.1", "hour": "0.7" }, "geometry": { "type": "Point", "coordinates": [ 37.7454, 55.77 ] } },
{ "type": "Feature", "properties": { "fid": 249, "coordinates": "37.4357, 55.8185", "NameOfStation": "Спартак", "railway": null, "line": "Таганско-Краснопресненская линия", "lineNumber": "u", "level": 10, "ids": null, "day": "5.1", "hour": "0.9" }, "geometry": { "type": "Point", "coordinates": [ 37.4357, 55.8185 ] } },
{ "type": "Feature", "properties": { "fid": 250, "coordinates": "37.35423, 55.856237", "NameOfStation": "Пятницкое шоссе", "railway": null, "line": "Арбатско-Покровская линия", "lineNumber": "e", "level": 10, "ids": null, "day": "20.8", "hour": "3.5" }, "geometry": { "type": "Point", "coordinates": [ 37.35423, 55.856237 ] } },
{ "type": "Feature", "properties": { "fid": 251, "coordinates": "37.3338, 55.4914", "NameOfStation": "Ватутинки (2027)", "railway": "construction", "line": "Троицкая", "lineNumber": "h", "level": 10, "ids": null, "day": null, "hour": null }, "geometry": { "type": "Point", "coordinates": [ 37.3338, 55.4914 ] } },
{ "type": "Feature", "properties": { "fid": 252, "coordinates": "37.35519794702324, 55.513766650402516", "NameOfStation": "Кедровая (2027)", "railway": "construction", "line": "Троицкая", "lineNumber": "h", "level": 10, "ids": null, "day": null, "hour": null }, "geometry": { "type": "Point", "coordinates": [ 37.355197947023242, 55.513766650402516 ] } },
{ "type": "Feature", "properties": { "fid": 253, "coordinates": "37.664192, 55.869491", "NameOfStation": "Бабушкинская", "railway": null, "line": "Калужско-Рижская линия", "lineNumber": "y", "level": 10, "ids": null, "day": "54.6", "hour": "9.7" }, "geometry": { "type": "Point", "coordinates": [ 37.664192, 55.869491 ] } },
{ "type": "Feature", "properties": { "fid": 254, "coordinates": "37.3909, 55.6493", "NameOfStation": "Солнцево", "railway": null, "line": "Калининская линия", "lineNumber": "i", "level": 10, "ids": null, "day": "19.6", "hour": "3.6" }, "geometry": { "type": "Point", "coordinates": [ 37.3909, 55.6493 ] } },
{ "type": "Feature", "properties": { "fid": 255, "coordinates": "37.289, 55.6064", "NameOfStation": "Внуково (2023)", "railway": "construction", "line": "Калининская линия", "lineNumber": "i", "level": 10, "ids": null, "day": null, "hour": null }, "geometry": { "type": "Point", "coordinates": [ 37.289, 55.6064 ] } },
{ "type": "Feature", "properties": { "fid": 256, "coordinates": "37.67423366935828, 55.64509593251834", "NameOfStation": "Сабурово (2028+)", "railway": "construction", "line": "Бирюлёвская", "lineNumber": "j", "level": 10, "ids": null, "day": null, "hour": null }, "geometry": { "type": "Point", "coordinates": [ 37.67423366935828, 55.645095932518338 ] } },
{ "type": "Feature", "properties": { "fid": 257, "coordinates": "37.5546, 55.5481", "NameOfStation": "Ул. Скобелевская", "railway": null, "line": "Бутовская линия", "lineNumber": "s", "level": 10, "ids": null, "day": "20.7", "hour": "3.7" }, "geometry": { "type": "Point", "coordinates": [ 37.5546, 55.5481 ] } },
{ "type": "Feature", "properties": { "fid": 258, "coordinates": "37.706122, 55.70021", "NameOfStation": "Южный порт (2027)", "railway": "construction", "line": "Люблинско-Дмитровская линия", "lineNumber": "p", "level": 10, "ids": null, "day": null, "hour": null }, "geometry": { "type": "Point", "coordinates": [ 37.706122, 55.70021 ] } },
{ "type": "Feature", "properties": { "fid": 259, "coordinates": "37.532, 55.5421", "NameOfStation": "Ул. Горчакова", "railway": null, "line": "Бутовская линия", "lineNumber": "s", "level": 10, "ids": null, "day": "10.7", "hour": "1.8" }, "geometry": { "type": "Point", "coordinates": [ 37.532, 55.5421 ] } },
{ "type": "Feature", "properties": { "fid": 260, "coordinates": "37.4998, 55.7981", "NameOfStation": "Панфиловская", "railway": null, "line": "МЦК", "lineNumber": "f", "level": 10, "ids": null, "day": "9.4", "hour": "1.1" }, "geometry": { "type": "Point", "coordinates": [ 37.4998, 55.7981 ] } },
{ "type": "Feature", "properties": { "fid": 261, "coordinates": "37.299, 55.94965", "NameOfStation": "Сходня", "railway": null, "line": "D3,", "lineNumber": "x", "level": 10, "ids": null, "day": null, "hour": null }, "geometry": { "type": "Point", "coordinates": [ 37.299, 55.94965 ] } },
{ "type": "Feature", "properties": { "fid": 262, "coordinates": "37.39743, 55.72372", "NameOfStation": "Сетунь", "railway": null, "line": "D1,", "lineNumber": "l", "level": 10, "ids": null, "day": "4.4", "hour": "0.6" }, "geometry": { "type": "Point", "coordinates": [ 37.39743, 55.72372 ] } },
{ "type": "Feature", "properties": { "fid": 263, "coordinates": "37.37531, 55.7159", "NameOfStation": "Немчиновка", "railway": null, "line": "D1,", "lineNumber": "l", "level": 10, "ids": null, "day": "2.1", "hour": "0.3" }, "geometry": { "type": "Point", "coordinates": [ 37.37531, 55.7159 ] } },
{ "type": "Feature", "properties": { "fid": 264, "coordinates": "37.48023, 55.70403", "NameOfStation": "Матвеевская", "railway": null, "line": "D4,", "lineNumber": "c", "level": 10, "ids": null, "day": null, "hour": null }, "geometry": { "type": "Point", "coordinates": [ 37.48023, 55.70403 ] } },
{ "type": "Feature", "properties": { "fid": 265, "coordinates": "37.52016, 55.73159", "NameOfStation": "Поклонная гора", "railway": null, "line": "D4,", "lineNumber": "c", "level": 10, "ids": null, "day": null, "hour": null }, "geometry": { "type": "Point", "coordinates": [ 37.52016, 55.73159 ] } },
{ "type": "Feature", "properties": { "fid": 266, "coordinates": "37.21197, 55.66526", "NameOfStation": "Пионерская", "railway": "stop", "line": null, "lineNumber": null, "level": 10, "ids": null, "day": null, "hour": null }, "geometry": { "type": "Point", "coordinates": [ 37.21197, 55.66526 ] } },
{ "type": "Feature", "properties": { "fid": 267, "coordinates": "37.31465, 55.68259", "NameOfStation": "Баковка", "railway": null, "line": "D1,", "lineNumber": "l", "level": 10, "ids": null, "day": "2.6", "hour": "0.6" }, "geometry": { "type": "Point", "coordinates": [ 37.31465, 55.68259 ] } },
{ "type": "Feature", "properties": { "fid": 268, "coordinates": "37.68989, 55.64131", "NameOfStation": "Москворечье", "railway": null, "line": "D2,", "lineNumber": "z", "level": 10, "ids": null, "day": "2.6", "hour": "0.3" }, "geometry": { "type": "Point", "coordinates": [ 37.68989, 55.64131 ] } },
{ "type": "Feature", "properties": { "fid": 269, "coordinates": "38.04424, 55.63456", "NameOfStation": "Удельная", "railway": null, "line": "D3,", "lineNumber": "x", "level": 10, "ids": null, "day": null, "hour": null }, "geometry": { "type": "Point", "coordinates": [ 38.04424, 55.63456 ] } },
{ "type": "Feature", "properties": { "fid": 270, "coordinates": "37.48486, 56.01351", "NameOfStation": "Лобня", "railway": null, "line": "D1,", "lineNumber": "l", "level": 10, "ids": null, "day": "9.4", "hour": "2.4" }, "geometry": { "type": "Point", "coordinates": [ 37.48486, 56.01351 ] } },
{ "type": "Feature", "properties": { "fid": 271, "coordinates": "37.89683, 55.41515", "NameOfStation": "Аэропорт-Домодедово", "railway": "stop", "line": null, "lineNumber": null, "level": 10, "ids": null, "day": null, "hour": null }, "geometry": { "type": "Point", "coordinates": [ 37.89683, 55.41515 ] } },
{ "type": "Feature", "properties": { "fid": 272, "coordinates": "37.65955, 55.58319", "NameOfStation": "Бирюлёво-Пассажирская", "railway": "", "line": "D5,", "lineNumber": "v", "level": 10, "ids": null, "day": null, "hour": null }, "geometry": { "type": "Point", "coordinates": [ 37.65955, 55.58319 ] } },
{ "type": "Feature", "properties": { "fid": 273, "coordinates": "38.00828, 55.75246", "NameOfStation": "Железнодорожный", "railway": null, "line": "D4,", "lineNumber": "c", "level": 10, "ids": null, "day": null, "hour": null }, "geometry": { "type": "Point", "coordinates": [ 38.00828, 55.75246 ] } },
{ "type": "Feature", "properties": { "fid": 274, "coordinates": "37.92309, 55.75768", "NameOfStation": "Салтыковская", "railway": null, "line": "D4,", "lineNumber": "c", "level": 10, "ids": null, "day": null, "hour": null }, "geometry": { "type": "Point", "coordinates": [ 37.92309, 55.75768 ] } },
{ "type": "Feature", "properties": { "fid": 275, "coordinates": "37.26303, 55.73754", "NameOfStation": "Барвиха", "railway": "stop", "line": null, "lineNumber": null, "level": 10, "ids": null, "day": null, "hour": null }, "geometry": { "type": "Point", "coordinates": [ 37.26303, 55.73754 ] } },
{ "type": "Feature", "properties": { "fid": 276, "coordinates": "37.21292, 55.72946", "NameOfStation": "Усово", "railway": "stop", "line": null, "lineNumber": null, "level": 10, "ids": null, "day": null, "hour": null }, "geometry": { "type": "Point", "coordinates": [ 37.21292, 55.72946 ] } },
{ "type": "Feature", "properties": { "fid": 277, "coordinates": "37.23884, 55.73324", "NameOfStation": "Ильинское", "railway": "stop", "line": null, "lineNumber": null, "level": 10, "ids": null, "day": null, "hour": null }, "geometry": { "type": "Point", "coordinates": [ 37.23884, 55.73324 ] } },
{ "type": "Feature", "properties": { "fid": 278, "coordinates": "37.29466, 55.739", "NameOfStation": "Раздоры", "railway": "stop", "line": null, "lineNumber": null, "level": 10, "ids": null, "day": null, "hour": null }, "geometry": { "type": "Point", "coordinates": [ 37.29466, 55.739 ] } },
{ "type": "Feature", "properties": { "fid": 279, "coordinates": "36.97576, 55.64743", "NameOfStation": "Захарово", "railway": "stop", "line": null, "lineNumber": null, "level": 10, "ids": null, "day": "0.1", "hour": "0" }, "geometry": { "type": "Point", "coordinates": [ 36.97576, 55.64743 ] } },
{ "type": "Feature", "properties": { "fid": 280, "coordinates": "36.96312, 55.67049", "NameOfStation": "Хлюпино", "railway": "stop", "line": null, "lineNumber": null, "level": 10, "ids": null, "day": "0.1", "hour": "0" }, "geometry": { "type": "Point", "coordinates": [ 36.96312, 55.67049 ] } },
{ "type": "Feature", "properties": { "fid": 281, "coordinates": "37.25032, 55.66778", "NameOfStation": "Отрадное", "railway": "stop", "line": null, "lineNumber": null, "level": 10, "ids": null, "day": "0.8", "hour": "0.2" }, "geometry": { "type": "Point", "coordinates": [ 37.25032, 55.66778 ] } },
{ "type": "Feature", "properties": { "fid": 282, "coordinates": "37.15153, 55.65031", "NameOfStation": "Здравница", "railway": "stop", "line": null, "lineNumber": null, "level": 10, "ids": null, "day": "0.2", "hour": "0" }, "geometry": { "type": "Point", "coordinates": [ 37.15153, 55.65031 ] } },
{ "type": "Feature", "properties": { "fid": 283, "coordinates": "37.06662, 55.6361", "NameOfStation": "Дачное", "railway": "stop", "line": null, "lineNumber": null, "level": 10, "ids": null, "day": "0.1", "hour": "0" }, "geometry": { "type": "Point", "coordinates": [ 37.06662, 55.6361 ] } },
{ "type": "Feature", "properties": { "fid": 284, "coordinates": "37.03111, 55.6269", "NameOfStation": "Малые Вязёмы", "railway": "stop", "line": null, "lineNumber": null, "level": 10, "ids": null, "day": "0.5", "hour": "0.1" }, "geometry": { "type": "Point", "coordinates": [ 37.03111, 55.6269 ] } },
{ "type": "Feature", "properties": { "fid": 285, "coordinates": "36.98653, 55.61518", "NameOfStation": "Голицыно", "railway": "stop", "line": null, "lineNumber": null, "level": 10, "ids": null, "day": "1.8", "hour": "0.4" }, "geometry": { "type": "Point", "coordinates": [ 36.98653, 55.61518 ] } },
{ "type": "Feature", "properties": { "fid": 286, "coordinates": "37.35413, 55.65621", "NameOfStation": "Переделкино", "railway": null, "line": "D4,", "lineNumber": "c", "level": 10, "ids": null, "day": null, "hour": null }, "geometry": { "type": "Point", "coordinates": [ 37.35413, 55.65621 ] } },
{ "type": "Feature", "properties": { "fid": 287, "coordinates": "38.06787, 55.65583", "NameOfStation": "Родники", "railway": "stop", "line": null, "lineNumber": null, "level": 10, "ids": null, "day": null, "hour": null }, "geometry": { "type": "Point", "coordinates": [ 38.06787, 55.65583 ] } },
{ "type": "Feature", "properties": { "fid": 288, "coordinates": "37.86273, 55.78023", "NameOfStation": "Стройка", "railway": "stop", "line": null, "lineNumber": null, "level": 10, "ids": null, "day": null, "hour": null }, "geometry": { "type": "Point", "coordinates": [ 37.86273, 55.78023 ] } },
{ "type": "Feature", "properties": { "fid": 289, "coordinates": "38.20234, 55.73012", "NameOfStation": "Электроугли", "railway": "stop", "line": null, "lineNumber": null, "level": 10, "ids": null, "day": null, "hour": null }, "geometry": { "type": "Point", "coordinates": [ 38.20234, 55.73012 ] } },
{ "type": "Feature", "properties": { "fid": 290, "coordinates": "37.91881, 55.80567", "NameOfStation": "Горенки", "railway": "stop", "line": null, "lineNumber": null, "level": 10, "ids": null, "day": null, "hour": null }, "geometry": { "type": "Point", "coordinates": [ 37.91881, 55.80567 ] } },
{ "type": "Feature", "properties": { "fid": 291, "coordinates": "38.04414, 55.96341", "NameOfStation": "Фрязино-Пассажирская", "railway": "stop", "line": null, "lineNumber": null, "level": 10, "ids": null, "day": null, "hour": null }, "geometry": { "type": "Point", "coordinates": [ 38.04414, 55.96341 ] } },
{ "type": "Feature", "properties": { "fid": 292, "coordinates": "37.55323, 55.80555", "NameOfStation": "Гражданская", "railway": null, "line": "D2,", "lineNumber": "z", "level": 10, "ids": null, "day": "2.9", "hour": "0.7" }, "geometry": { "type": "Point", "coordinates": [ 37.55323, 55.80555 ] } },
{ "type": "Feature", "properties": { "fid": 293, "coordinates": "37.86775, 56.06474", "NameOfStation": "Правда", "railway": "stop", "line": null, "lineNumber": null, "level": 10, "ids": null, "day": null, "hour": null }, "geometry": { "type": "Point", "coordinates": [ 37.86775, 56.06474 ] } },
{ "type": "Feature", "properties": { "fid": 294, "coordinates": "37.85429, 56.0399", "NameOfStation": "Заветы Ильича", "railway": "stop", "line": null, "lineNumber": null, "level": 10, "ids": null, "day": null, "hour": null }, "geometry": { "type": "Point", "coordinates": [ 37.85429, 56.0399 ] } },
{ "type": "Feature", "properties": { "fid": 295, "coordinates": "37.83941, 56.01208", "NameOfStation": "Пушкино", "railway": "", "line": "D5,", "lineNumber": "v", "level": 10, "ids": null, "day": null, "hour": null }, "geometry": { "type": "Point", "coordinates": [ 37.83941, 56.01208 ] } },
{ "type": "Feature", "properties": { "fid": 296, "coordinates": "37.81907, 55.97856", "NameOfStation": "Клязьма", "railway": "", "line": "D5,", "lineNumber": "v", "level": 10, "ids": null, "day": null, "hour": null }, "geometry": { "type": "Point", "coordinates": [ 37.81907, 55.97856 ] } },
{ "type": "Feature", "properties": { "fid": 297, "coordinates": "38.17564, 55.63863", "NameOfStation": "Хрипань", "railway": "stop", "line": null, "lineNumber": null, "level": 10, "ids": null, "day": null, "hour": null },